id,type,name,phone,address,latitude,longitude,nptype,nptypename,purpose,mission
292577647,合作社,有限責任連江縣政府所屬各機關學校聯合員工消費合作社,0836-23367,連江縣南竿鄉馬祖村103號,26.160992625819,119.91876799532,NP100-3,合作場所,,
292577646,合作社,有限責任國立馬祖高級中學員生消費合作社,0937-505878,連江縣南竿鄉介壽村374號,26.154321848591,119.94978813224,NP100-3,合作場所,,
292577650,合作社,有限責任金門縣金門計程車運輸合作社,323982,金門縣金城鎮民族路316號2樓,24.430873719088,118.31412096938,NP100-3,合作場所,,
292577651,合作社,有限責任金門縣水產試驗所員工消費合作社,082-326408,金門縣金城鎮西海路2號,24.424700376819,118.31488139792,NP100-3,合作場所,,
292577653,合作社,保證責任金門縣農漁生產運銷合作社,082-353535,金門縣金沙鎮三山星山西66號,24.504116308439,118.44021019782,NP100-3,合作場所,,
292577654,合作社,有限責任金門縣愛心計程車運輸合作社,082-353868,金門縣金沙鎮陽宅92號,24.479884501671,118.42770840934,NP100-3,合作場所,,
292577653,合作社,保證責任金門縣農漁生產運銷合作社,082-353535,金門縣金沙鎮三山星山西66號,24.504116308439,118.44021019782,NP100-3,合作場所,,
292571191,合作社,有限責任宜蘭縣三星鄉大隱國民小學員生消費合作社,03-9890155,宜蘭縣三星鄉大隱村大埔路129號,24.668321065716,121.72440180009,NP100-3,合作場所,,
292571195,合作社,有限責任宜蘭縣三星鄉清水國民小學員生消費合作社,,宜蘭縣三星鄉清水路51號,24.643409436897,121.59659391941,NP100-3,合作場所,,
292572202,合作社,保證責任宜蘭縣毛豬運銷合作社,03-9577421,宜蘭縣五結鄉中奧路三段91號,,,,,,
292572226,合作社,有限責任宜蘭縣立冬山國民中學員生消費合作社,03-9592076,宜蘭縣冬山鄉南興村照安路26號,24.631676488527,121.79306851692,NP100-3,合作場所,,
292572246,合作社,有限責任宜蘭縣南澳鄉碧侯國民小學員生消費合作社,03-9981634,宜蘭縣南澳鄉碧候路自覺巷38號,24.474122293332,121.78469528165,NP100-3,合作場所,,
292572247,合作社,有限責任宜蘭縣南澳國中員生社,,宜蘭縣南澳鄉蘇花路二段301號,24.465970411462,121.80080541369,NP100-3,合作場所,,
292572251,合作社,有限責任宜蘭縣員山鄉七賢國民小學員生消費合作社,,宜蘭縣員山鄉七賢村浮洲路30號,24.71987403833,121.74317544334,NP100-3,合作場所,,
292572252,合作社,有限責任宜蘭縣員山鄉自強國民小學員生消費合作社,,宜蘭縣員山鄉中華村冷水路51號,24.696019997924,121.63437705775,NP100-3,合作場所,,
292572254,合作社,有限責任行政院國軍退除役官兵輔導委員會員山榮民醫院員工消費合作社,03-9227574,宜蘭縣員山鄉內城村榮光路386號,24.721918503523,121.68782447882,NP100-3,合作場所,,
292572255,合作社,宜蘭縣內城國校員生消費社,,宜蘭縣員山鄉內城路545號,24.718000479818,121.68859309857,NP100-3,合作場所,,
292572262,合作社,有限責任宜蘭縣壯圍鄉公館國民小學員生消費合作社,,宜蘭縣壯圍鄉紅葉路69號,24.736287162475,121.81580487075,NP100-3,合作場所,,
292572264,合作社,有限責任宜蘭縣員山鄉深溝國民小學員生消費合作社,03-9224860,宜蘭縣員山鄉深溝村惠民路266號,24.723361025534,121.7241143334,NP100-3,合作場所,,
292572265,合作社,保證責任宜蘭縣蘭陽蔬菜生產合作社,03-9226626,宜蘭縣員山鄉湖北村大湖路20-6號,24.744747537437,121.70023046025,NP100-3,合作場所,,
292572268,合作社,宜蘭縣大湖國校員生消費社,,宜蘭縣員山鄉蜊埤路55號,24.747883596636,121.69164148131,NP100-3,合作場所,,
292572269,合作社,有限責任台灣省自來水公司第八區管理處員工消費合作社,03-9229847,宜蘭縣員山鄉金山西路265號,24.746300917402,121.72161448111,NP100-3,合作場所,,
292572272,合作社,宜蘭縣壯圍鄉公所員工消費合作社,,宜蘭縣壯圍鄉壯五村五路91之2號,,,,,,
292572273,合作社,有限責任宜蘭縣壯圍鄉公所員工消費合作社,,宜蘭縣壯圍鄉壯五村五路91之2號,,,,,,
292572277,合作社,有限責任宜蘭縣壯圍鄉大福國民小學員生消費合作社,03-9301239,宜蘭縣壯圍鄉大福路34號,24.793399602123,121.80246929902,NP100-3,合作場所,,
292572278,合作社,有限責任宜蘭縣新南國民小學員生消費合作社,03-9333337,宜蘭縣壯圍鄉新南村新南路120號,24.725754053241,121.80370422083,NP100-3,合作場所,,
292572280,合作社,過嶺國小,,宜蘭縣壯圍鄉過嶺路25之3號,24.749170668225,121.8158382464,NP100-3,合作場所,,
292572281,合作社,宜蘭縣大同鄉南山社區合作農場,,宜蘭縣大同鄉南山村埤南巷22-2號,24.436846272822,121.38002035315,NP100-3,合作場所,,
292572284,合作社,有限責任宜蘭縣大同鄉寒溪國民小學員生消費合作社,03-9517441,宜蘭縣大同鄉寒溪村寒溪巷16號,24.609292211982,121.68736956152,NP100-3,合作場所,,
292572285,合作社,有限責任宜蘭縣大同鄉機關學校聯合員工消費社,,宜蘭縣大同鄉崙埤万朝陽38號,24.671181690337,121.59667684504,NP100-3,合作場所,,
292572287,合作社,有限責任宜蘭縣原住民餐旅服務勞動合作社,03-9801933,宜蘭縣大同鄉崙埤村崙埤路8號,24.698356896313,121.61542479612,NP100-3,合作場所,,
292572288,合作社,有限責任宜蘭縣大同國民小學員生消費合作社,03-9801172,宜蘭縣大同鄉崙埤村朝陽10之9號,24.678456868154,121.60890100777,NP100-3,合作場所,,
292572293,合作社,有限責任台灣電力公司蘭陽發電廠員工消費合作社,,宜蘭縣宜蘭市中山路5號,24.767031327304,121.75543335519,NP100-3,合作場所,,
292572294,合作社,保證責任宜蘭縣鰻蝦生產合作社,03-9324524,宜蘭縣宜蘭市中山路一段725號,24.739339167642,121.75984662092,NP100-3,合作場所,,
292572296,合作社,有限責任台灣宜蘭地方法院員工消費合作社,9324188,宜蘭縣宜蘭市中山路二段261號,24.752371164789,121.75259340841,NP100-3,合作場所,,
292572297,合作社,有限責任台灣土地銀行宜蘭分行員工消費合作社,03-9361101,宜蘭縣宜蘭市光復路43號,24.755247488175,121.75485250181,NP100-3,合作場所,,
292572300,合作社,保証責任宜蘭住宅公用合作社,,宜蘭縣宜蘭市南門里舊城南路23號,24.754852450441,121.75145095644,NP100-3,合作場所,,
292572301,合作社,有限責任台灣省菸酒公司宜蘭分公司員工消費合作社,,宜蘭縣宜蘭市吳沙路120號,,,,,,
292572303,合作社,有限責任國立蘭陽女子高級中學員生消費合作社,03-9333819,宜蘭縣宜蘭市女中路二號,24.75076394778,121.76914805452,NP100-3,合作場所,,
292572304,合作社,有限責任宜蘭縣宜蘭市宜蘭國民小學員生消費合作社,03-9322210,宜蘭縣宜蘭市崇聖街2號,24.753255066361,121.75433171656,NP100-3,合作場所,,
292572308,合作社,有限責任宜蘭縣政府文化局員工消費合作社,9322440,宜蘭縣宜蘭市復興路2段101號,24.748957967984,121.74484762243,NP100-3,合作場所,,
292572309,合作社,有限責任宜蘭縣宜蘭市消費合作社,,宜蘭縣宜蘭市復興路2段34號,24.748535268449,121.74987312801,NP100-3,合作場所,,
292572311,合作社,有限責任宜蘭縣立復興國民中學員生消費合作社,03-9322942,宜蘭縣宜蘭市復興路二段77號,24.749035830874,121.74685313586,NP100-3,合作場所,,
292572312,合作社,有限責任中華電信宜蘭營運處員工消費合作社,,宜蘭縣宜蘭市東港路46號,24.754959110282,121.76280138257,NP100-3,合作場所,,
292572316,合作社,宜蘭縣果菜運銷合作社,039-384626,宜蘭縣宜蘭市校舍路116號,24.751479352917,121.76158343621,NP100-3,合作場所,,
292572317,合作社,有限責任宜蘭縣黎明國民小學員生消費合作社,03-9383792,宜蘭縣宜蘭市校舍路1號,24.751984030643,121.76442494109,NP100-3,合作場所,,
292572319,合作社,有限責任經濟部水利署第一河川局員工消費合作社,03-9324031,宜蘭縣宜蘭市民權新路4號,24.750934594762,121.75206072323,NP100-3,合作場所,,
292572320,合作社,宜蘭縣家禽生產合作社,,宜蘭縣宜蘭市民權路71號,24.753957999589,121.74838309391,NP100-3,合作場所,,
292571128,合作社,有限責任宜蘭縣泰雅建築勞動合作社,,,,,,,,
292571188,合作社,有限責任宜蘭縣三星鄉憲明國民小學員生消費合作社,03-9892049,宜蘭縣三星鄉大山村福山街119號,24.661549311311,121.61846884925,NP100-3,合作場所,,
292571194,合作社,有限責任宜蘭縣立三星國民中學員生消費合作社,03-9892012,宜蘭縣三星鄉月眉村月眉村54號,24.667322281308,121.65248939363,NP100-3,合作場所,,
292571198,合作社,保證責任宜蘭縣花卉生產合作社,039-894269,宜蘭縣三星鄉萬德村萬德路35-2號,24.674833124241,121.65293950152,NP100-3,合作場所,,
292571413,合作社,有限責任宜蘭縣三星鄉公所員工消費合作社,,宜蘭縣三星鄉集慶村成功路67號,24.665081972763,121.65344517596,NP100-3,合作場所,,
292572200,合作社,有限責任宜蘭縣立興中國民中學員生消費合作社,03-9653453,宜蘭縣五結鄉上四村中正東路4號,24.698729175015,121.77330001426,NP100-3,合作場所,,
292572203,合作社,有限責任宜蘭縣立五結鄉中興國民小學員生消費合作社,,宜蘭縣五結鄉中興路三段67號,24.692728448175,121.7719440736,NP100-3,合作場所,,
292572205,合作社,有限責任法務部行政執行署宜蘭行政執行處員工消費合作社,,宜蘭縣五結鄉二結村中正路三段15號,24.70303925429,121.77002461765,NP100-3,合作場所,,
292572251,合作社,有限責任宜蘭縣員山鄉七賢國民小學員生消費合作社,,宜蘭縣員山鄉七賢村浮洲路30號,24.71987403833,121.74317544334,NP100-3,合作場所,,
292572257,合作社,有限責任宜蘭縣員生鄉同樂國民小學員生消費合作社,03-9223543,宜蘭縣員山鄉同樂村新城路84之4號,24.763647301151,121.72974462485,NP100-3,合作場所,,
292572209,合作社,有限責任宜蘭縣立五結國民小學員生消費合作社,03-9527272,宜蘭縣五結鄉五結村國民路1號,24.68697227214,121.79796696762,NP100-3,合作場所,,
292572219,合作社,有限責任宜蘭縣五結鄉利澤國民小學員生消費合作社,,宜蘭縣五結鄉成興村利寶路101號,24.665532524441,121.82762912392,NP100-3,合作場所,,
292572220,合作社,有限責任宜蘭縣利澤國民小學員生消費合作社,03-9506234,宜蘭縣五結鄉成興村利寶路101號,24.665532524441,121.82762912392,NP100-3,合作場所,,
292572368,合作社,有限責任宜蘭縣原住民景觀綠化勞動合作社,03-9616136,宜蘭縣羅東鎮公正路579號9樓,24.678833593178,121.75564546662,NP100-3,合作場所,,
292574052,合作社,有限責任新竹縣司馬庫斯原住民營造勞動合作社,03-5847600,新竹縣尖石鄉玉峰村14鄰司馬庫斯21號,24.578600664659,121.33587499415,NP100-3,合作場所,,
292574036,合作社,有限責任新竹縣北埔鄉機關聯合員工消費合作社,,新竹縣北埔鄉中山路20號,24.70203904762,121.05638900079,NP100-3,合作場所,,
292574037,合作社,有限責任新竹縣立北埔國民中學員生消費合作社,03-5802224,新竹縣北埔鄉埔尾村141號,24.704276736862,121.04772877525,NP100-3,合作場所,,
292574039,合作社,有限責任新竹縣立大坪國民小學員生消費合作社,03-5802264,新竹縣北埔鄉外坪村8號,24.675231721256,121.05911761999,NP100-3,合作場所,,
292574040,合作社,有限責任新竹縣北埔鄉太坪國民學校員生消費合作社,,新竹縣北埔鄉外坪村8號,24.675231721256,121.05911761999,NP100-3,合作場所,,
292574113,合作社,有限責任新竹縣信勢國民小學員生消費合作社,03-5992133,新竹縣湖口鄉信勢村成功路360號,24.906021087753,121.04381941183,NP100-3,合作場所,,
292574034,合作社,有限責任新竹縣五峰鄉五峰國民學校員生消費合作社,,新竹縣五峰鄉大隘村6鄰123號,24.632298430902,121.11361624084,NP100-3,合作場所,,
292574035,合作社,有限責任新竹縣五峰鄉機關聯合員工社,,新竹縣五峰鄉大隘村6鄰95號,24.632065308852,121.11963319832,NP100-3,合作場所,,
292574040,合作社,有限責任新竹縣北埔鄉太坪國民學校員生消費合作社,,新竹縣北埔鄉外坪村8號,24.675231721256,121.05911761999,NP100-3,合作場所,,
292574041,合作社,有限責任新竹縣寶山鄉三峰國民小學員生消費合作社,03-5760057,新竹縣寶山鄉三峰村新湖路150號,24.721235601958,120.99701592075,NP100-3,合作場所,,
292574044,合作社,新竹縣橄欖生產合作社,,新竹縣寶山鄉油田村12鄰60號,24.719805616542,120.99939865197,NP100-3,合作場所,,
292574046,合作社,有限責任新竹縣寶山鄉機關聯合員工社,,新竹縣寶山鄉雙溪村9鄰147號,24.77286612113,121.0018758609,NP100-3,合作場所,,
292574060,合作社,有限責任新竹縣峨眉鄉機關聯合員工社,,新竹縣峨眉鄉峨眉村8鄰8號,24.688975895224,121.01946426644,NP100-3,合作場所,,
292574061,合作社,有限責任新竹縣立峨眉國民中學員生消費合作社,5800208,新竹縣峨眉鄉峨眉村峨眉街54號,24.690803497862,121.01807913257,NP100-3,合作場所,,
292574065,合作社,有限責任新竹縣枋寮國民小學員生消費合作社,03-5882081,新竹縣新埔鎮上寮里190號,24.835701106039,121.05511275752,NP100-3,合作場所,,
292574066,合作社,保証責任新竹縣新埔鎮上寮社區合作農場,,新竹縣新埔鎮上寮里1鄰33號,24.837240609179,121.05798929293,NP100-3,合作場所,,
292574071,合作社,有限責任新竹縣文山國民小學員生消費合作社,03-5882918,新竹縣新埔鎮文山里8鄰國校街160號,24.825154669485,121.04779725206,NP100-3,合作場所,,
292574072,合作社,有限責任新竹縣私立內思高級工業職業學校員生消費合作社,5882520,新竹縣新埔鎮楊新路一段40號,24.828256947437,121.08197818657,NP100-3,合作場所,,
292574076,合作社,有限責任新竹縣照門國民小學員生消費合作社,03-5899234,新竹縣新埔鎮照門里9鄰39號,24.847602775047,121.11654606776,NP100-3,合作場所,,
292574077,合作社,有限責任新竹縣立照門國民中學員生消費合作社,03-5890214,新竹縣新埔鎮照門里照鏡7號,24.848943358539,121.11130443523,NP100-3,合作場所,,
292574083,合作社,有限責任新竹縣新豐鄉第二消費合作社,,新竹縣新豐鄉埔和村19鄰埔頂219號,24.933106728121,120.99729672616,NP100-3,合作場所,,
292574084,合作社,保証責任新竹縣新豐鄉埔頂社區合作農場,,新竹縣新豐鄉埔和村1鄰2號,24.915483640211,120.99180018082,NP100-3,合作場所,,
292574087,合作社,有限責任新竹縣新豐鄉福興國民小學員生消費合作社,03-5680964,新竹縣新豐鄉後湖村108號,24.932754520066,121.00936213936,NP100-3,合作場所,,
292574089,合作社,有限責任新竹縣新豐國民中學員生消費合作社,5576573,新竹縣新豐鄉成德街36號,24.902397667382,120.99127283127,NP100-3,合作場所,,
292574090,合作社,有限責任新竹縣紅毛鄉紅毛國民學校員生消費合作社,,新竹縣新豐鄉新庄路38號,24.902248254083,120.98858805883,NP100-3,合作場所,,
292574098,合作社,有限責任新竹縣橫山鄉大肚國民小學員生消費合作社,03-5932380,新竹縣橫山鄉中豐路二段157號,24.719015210883,121.14044020263,NP100-3,合作場所,,
292574104,合作社,有限責任新竹縣沙坑國民小學員生消費合作社,5811034,新竹縣橫山鄉沙坑村3鄰沙坑街48號,24.739334052253,121.16210682834,NP100-3,合作場所,,
292574219,合作社,有限責任新竹縣關西鎮錦山國民小學員生消費合作社,03-5478681,新竹縣關西鎮金山里107號,24.768678035209,121.22531966035,NP100-3,合作場所,,
292574221,合作社,有限責任新竹縣燥樹排合作農場員工消費合作社,5849360,新竹縣關西鎮金山里3鄰23號,24.767717207664,121.22295588449,NP100-3,合作場所,,
292574218,合作社,有限責任新竹縣關西鎮公所員工聯合消費合作社,,新竹縣關西鎮西安里正義路51號,24.792203200034,121.17586149936,NP100-3,合作場所,,
292574211,合作社,有限責任新竹縣大平社區合作農場,03-5876736,新竹縣關西鎮東平里18鄰南坑37號,24.842958153461,121.15308518663,NP100-3,合作場所,,
292574212,合作社,有限責任新竹縣關西鎮太平國民小學員生消費合作社,03-5882634,新竹縣關西鎮東平里5鄰27號,24.826476785521,121.1198563468,NP100-3,合作場所,,
292574213,合作社,有限責任新竹縣關西鎮玉山國民小學員生消費合作社,03-5476349,新竹縣關西鎮玉山里25號,24.743459721527,121.20311933239,NP100-3,合作場所,,
292574208,合作社,有限責任新竹縣東光國民小學員生消費合作社,5872434,新竹縣關西鎮東光里16張190號,24.776400603612,121.17600722334,NP100-3,合作場所,,
292574209,合作社,有限責任新竹縣立富光國民中學員生消費合作社,03-5872224,新竹縣關西鎮東光里十六張49號,24.779961954221,121.18080281287,NP100-3,合作場所,,
292574210,合作社,有限責任新竹縣立關西農業職業學校員生消費合作社,,新竹縣關西鎮東安里中山東路2號,24.789793152981,121.18613221711,NP100-3,合作場所,,
292574214,合作社,有限責任新竹縣石光國民中學員生消費合作社,03-5868019,新竹縣關西鎮石光里308巷44號,24.813742655554,121.12970812117,NP100-3,合作場所,,
292574204,合作社,有限責任新竹縣關西鎮東安國民學校員生消費合作社,,新竹縣關西鎮中山東路40號,24.790302352652,121.18391551253,NP100-3,合作場所,,
292574203,合作社,有限責任國立關西高級中學員生消費合作社,03-5870130,新竹縣關西鎮中山東路2號,24.789793152981,121.18613221711,NP100-3,合作場所,,
292574205,合作社,有限責任新竹縣關西國民中學員生消費合作社,03-5872008,新竹縣關西鎮北斗里北門口41號,24.798118518269,121.17290657325,NP100-3,合作場所,,
292574202,合作社,有限責任新竹縣關西鎮坪林國民小學員生消費合作社,03-5869310,新竹縣關西鎮上林里11鄰11號,24.800972713111,121.14024558583,NP100-3,合作場所,,
292574207,合作社,有限責任新竹縣南和國民小學員生消費合作社,03-5868952,新竹縣關西鎮南和里69號,24.810295422097,121.11883786792,NP100-3,合作場所,,
292574216,合作社,有限責任新竹縣關西鎮石光國民小學員生消費合作社,03-5869311,新竹縣關西鎮石光里石岡子386號,24.813659664215,121.12899875913,NP100-3,合作場所,,
292574198,合作社,有限責任新竹縣立芎林初級中學員生消費合作社,,新竹縣芎林鄉新鳳村74號,24.764839830255,121.08878625507,NP100-3,合作場所,,
292574199,合作社,有限責任新竹縣碧潭國民小學員生消費合作社,03-5923191,新竹縣芎林鄉福昌街90號,24.746745565075,121.10354158308,NP100-3,合作場所,,
292574201,合作社,保証責任新竹縣芎林鄉永秀社區合作農場,,新竹縣芎林鄉秀湖村6鄰53號,24.730257479617,121.11700016692,NP100-3,合作場所,,
292574217,合作社,有限責任新竹縣關西國民小學員生消費合作社,03-5872028,新竹縣關西鎮西安里中山路126號,24.702893282994,121.05411020173,NP100-3,合作場所,,
292574192,合作社,保證限責任新竹縣竹中社區合作農場,03-5822957,新竹縣竹東鎮頭重里竹中路72號,24.780933562153,121.02925943052,NP100-3,合作場所,,
292574190,合作社,有限責任新竹縣陸豐國民小學員生消費合作社,5923697,新竹縣竹東鎮陸豊里4鄰48號,,,,,,
292574193,合作社,有限責任新竹縣芎林鄉五龍國民小學員生消費合作社,03-5932320,新竹縣芎林鄉五龍村105號,24.736194068952,121.12303663774,NP100-3,合作場所,,
292574188,合作社,有限責任新竹縣竹東鎮消費合作社,,新竹縣竹東鎮長春路262號,24.735483275155,121.08939259673,NP100-3,合作場所,,
292574186,合作社,有限責任衛生署署立竹東醫院員工消費合作社,5943248,新竹縣竹東鎮至善路52號,24.718675910734,121.09356106087,NP100-3,合作場所,,
292574187,合作社,有限責任新竹縣大同國民小學員生消費合作社,5961160,新竹縣竹東鎮莊敬路111號,24.740299934012,121.08868500566,NP100-3,合作場所,,
292574189,合作社,有限責任新竹縣竹東鎮第三消費合作社,,新竹縣竹東鎮長春路671號,24.741208984286,121.08542582386,NP100-3,合作場所,,
292574194,合作社,保證責任新竹縣芎林鄉五華社區合作社,,新竹縣芎林鄉五龍村四鄰49號之1,24.737391341248,121.12415838838,NP100-3,合作場所,,
292574181,合作社,有限責任新竹縣立員東國民中學員生消費合作社,03-5963324,新竹縣竹東鎮東峰路521號,24.707293119601,121.09795000615,NP100-3,合作場所,,
292574182,合作社,有限責任新竹縣竹東鎮第二消費社,,新竹縣竹東鎮東峰路72.74.76.78號,24.718913764436,121.09622796752,NP100-3,合作場所,,
292574183,合作社,有限責任新竹縣竹東鎮機關聯合員工社,,新竹縣竹東鎮東林路88號,24.736809296013,121.09148209199,NP100-3,合作場所,,
292574184,合作社,有限責任新竹縣竹中國民小學員生消費合作社,5823822,新竹縣竹東鎮竹中路104巷14號,24.780819924763,121.029868245,NP100-3,合作場所,,
292574185,合作社,有限責任新竹縣立自強國民中學員生消費合作社,03-5103291,新竹縣竹東鎮自強路169號,24.745264507706,121.08560002851,NP100-3,合作場所,,
292574195,合作社,保證限責任新竹縣芎林鄉上林合作農場,03-5925186,新竹縣芎林鄉富林路一段361號,24.737225423581,121.11412320378,NP100-3,合作場所,,
292574177,合作社,有限責任新竹縣立二重國民中學員生消費合作社,03-5823083,新竹縣竹東鎮學府路132號,24.766785627183,121.05608752694,NP100-3,合作場所,,
292574178,合作社,有限責任新竹縣竹東國民小學員生消費合作社,03-5942658,新竹縣竹東鎮康寧街1號,24.735193950045,121.08832717676,NP100-3,合作場所,,
292574176,合作社,有限責任國立竹東高級中學員生消費合作社,03-5962024,新竹縣竹東鎮大林路二號,24.731347800906,121.08955335445,NP100-3,合作場所,,
292574179,合作社,有限責任新竹縣竹東鎮戶政事務所員工消費合作社,03-5966334,新竹縣竹東鎮康寧街89號,24.737177504903,121.08691310853,NP100-3,合作場所,,
292574172,合作社,有限責任新竹縣客家米食生產合作社,03-5827779,新竹縣竹東鎮二重里學府路65號,24.765819127151,121.05572402735,NP100-3,合作場所,,
292574173,合作社,新竹縣立竹東國民中學員生社,,新竹縣竹東鎮公園路8號,24.736057329824,121.08719821901,NP100-3,合作場所,,
292574175,合作社,有限責任新竹縣竹東鎮機關學校聯合員工消費合作社,03-5962449,新竹縣竹東鎮大同路86號,24.738711335064,121.08941601111,NP100-3,合作場所,,
292574180,合作社,有限責任新竹縣員崠國民小學員生消費合作社,5962143,新竹縣竹東鎮東峰路281號,24.713739383783,121.09880504152,NP100-3,合作場所,,
292574196,合作社,有限責任新竹縣芎林鄉機關聯合員工社,,新竹縣芎林鄉文昌街51號,24.773331867812,121.08187617292,NP100-3,合作場所,,
292574169,合作社,有限責任新竹縣達那原住民清潔勞動合作社,03-5965623,新竹縣竹東鎮中豐路二段233-1號9樓,24.723182130258,121.0916629039,NP100-3,合作場所,,
292574166,合作社,有限責任新竹縣竹東鎮中山國民小學員生消費合作社,03-5962102,新竹縣竹東鎮中山路70號,24.732385552698,121.08974617395,NP100-3,合作場所,,
292574167,合作社,有限責任新竹縣工業技術研究院員工消費合作社,03-5916222,新竹縣竹東鎮中興路4段195號52館B1,24.774329414,121.04766770985,NP100-3,合作場所,,
292574163,合作社,有限責任新竹縣竹北市麻園國民小學員生消費合作社,03-5563540,新竹縣竹北市麻園里60-2號,24.84949087669,120.97726464889,NP100-3,合作場所,,
292574162,合作社,有限責任新竹縣立鳳岡國民中學員生消費合作社,5561284,新竹縣竹北市鳳岡路3段8號,24.863378398568,120.96861797868,NP100-3,合作場所,,
292574165,合作社,有限責任新竹縣竹東鎮瑞峰國民小學員生消費合作社,03-5949052,新竹縣竹東鎮上坪里4鄰43號,24.661758716886,121.12179086527,NP100-3,合作場所,,
292574168,合作社,有限責任行政院國軍退除役官兵輔導委員會竹東榮民醫院員工消費合作社,03-5941443,新竹縣竹東鎮中豐路一段81號,24.722702320595,121.09957481852,NP100-3,合作場所,,
292574170,合作社,有限責任新竹縣上?國民小學員生消費合作社,03-5942917,新竹縣竹東鎮中豐路二段399號,24.726167746546,121.08810240251,NP100-3,合作場所,,
292574159,合作社,有限責任新竹縣竹仁國民小學員生消費合作社,03-5552472,新竹縣竹北市豆子埔62-2號,24.835084123148,121.02328752885,NP100-3,合作場所,,
292574156,合作社,有限責任新竹縣立博愛國民中學員生消費合作社,03-5530246,新竹縣竹北市縣政13路81號,,,,,,
292574157,合作社,有限責任新竹縣第一計程車運輸合作社,03-5558995,新竹縣竹北市縣政九路13號3樓,24.82505704253,121.00840898676,NP100-3,合作場所,,
292574158,合作社,有限責任新竹縣文化局員工消費合作社,035-5510201,新竹縣竹北市縣政九路146號,24.83009587551,121.01249553289,NP100-3,合作場所,,
292574160,合作社,有限責任新竹縣竹北市新港國民小學員生消費合作社,03-5563275,新竹縣竹北市長青路一段333巷135號,24.850842590708,120.95503741694,NP100-3,合作場所,,
292574161,合作社,保證責任新竹縣竹北鄉隘口社區合作社,,新竹縣竹北市隘口里二鄰15-3號,24.809871655394,121.038509457,NP100-3,合作場所,,
292574171,合作社,有限責任新竹縣二重國民小學員生社,,新竹縣竹東鎮二重里光明路32號,24.767496649919,121.05731035237,NP100-3,合作場所,,
292574197,合作社,有限責任新竹縣芎林國民中學員生消費合作社,03-5922775,新竹縣芎林鄉新鳳村74號,24.764839830255,121.08878625507,NP100-3,合作場所,,
292574147,合作社,有限責任新竹縣竹北市六家國民小學員生消費合作社,03-5502624,新竹縣竹北市嘉興路62號,24.815094591597,121.02544204482,NP100-3,合作場所,,
292574148,合作社,保証責任新竹縣竹北鄉大義社區合作農場,,新竹縣竹北市大義村一鄰64之15號,24.864970630308,120.96871573604,NP100-3,合作場所,,
292574146,合作社,有限責任新竹縣六家國中社,,新竹縣竹北市嘉興路356號,24.820934034793,121.03199791625,NP100-3,合作場所,,
292574149,合作社,有限責任新竹縣鳳岡國民小學員生消費合作社,03-5561928,新竹縣竹北市大義里鳳岡路3段200號,24.861473137506,120.96396552966,NP100-3,合作場所,,
292574143,合作社,有限責任新竹縣政府員工消費合作社,,新竹縣竹北市光明六路10號,24.826862141713,121.01291766173,NP100-3,合作場所,,
292574144,合作社,有限責任新竹縣警察局員工社,,新竹縣竹北市光明六路12號,24.82693359236,121.01126295544,NP100-3,合作場所,,
292574145,合作社,有限責任新竹縣博愛國民小學員生消費合作社,03-5519830,新竹縣竹北市光明六路72號,24.818848360333,121.0291964902,NP100-3,合作場所,,
292574150,合作社,有限責任新竹肉品市場股份有限公司員工消費社,,新竹縣竹北市新庄里新庄子45-3號,24.833163313781,120.99049129152,NP100-3,合作場所,,
292574139,合作社,保證責任新竹縣毛豬運銷合作社,03-5516331,新竹縣竹北市仁義路76號5樓,24.836114024534,121.01520759008,NP100-3,合作場所,,
292574140,合作社,保證責任新竹縣衛生局員工社,,新竹縣竹北市光明七街1號,24.826079924151,121.01538100561,NP100-3,合作場所,,
292574138,合作社,保證責任新竹縣裝卸搬運勞動合作社,03-5550332,新竹縣竹北市中華路2巷20-1號,24.826276271486,120.99904188169,NP100-3,合作場所,,
292574141,合作社,保證責任新竹縣機關員工消費合作社聯合社,03-5518101,新竹縣竹北市光明六路10號,24.826862141713,121.01291766173,NP100-3,合作場所,,
292574135,合作社,有限責任新竹縣清潔勞動合作社,,新竹縣竹北市中華路1448巷52號,24.861139394462,120.99289556019,NP100-3,合作場所,,
292574136,合作社,有限責任新竹縣新竹工業區勞工消費社,,新竹縣竹北市中華路22號,24.827496294527,120.99881797149,NP100-3,合作場所,,
292574142,合作社,有限責任新竹縣學校員生消費合作社聯合社,03-5513307,新竹縣竹北市光明六路10號,24.826862141713,121.01291766173,NP100-3,合作場所,,
292574151,合作社,有限責任新竹縣竹北市新社國民小學員生消費合作社,03-5552026,新竹縣竹北市新社里40號,24.842757447247,121.00013800598,NP100-3,合作場所,,
292574130,合作社,有限責任新竹縣竹北市豐田國民小學員生消費合作社,03-5563930,新竹縣竹北市中正西路1377號,24.842245122652,120.96424128238,NP100-3,合作場所,,
292574131,合作社,有限責任新竹縣立竹北國民中學員生消費合作社,03-5552064,新竹縣竹北市中正西路154號,24.839501517355,121.00434913274,NP100-3,合作場所,,
292574129,合作社,有限責任中華民國退伍軍人協會新竹縣分會員工社,,新竹縣竹北市中正東路439號,24.837425198941,121.00767252893,NP100-3,合作場所,,
292574132,合作社,有限責任新竹縣私立義民中學員生消費合作社,,新竹縣竹北市中正西路15號,24.837375450906,121.00362630958,NP100-3,合作場所,,
292574126,合作社,有限責任新竹縣竹北國民小學員生消費合作社,5552047,新竹縣竹北市中央路98號,24.838077315691,121.00217360156,NP100-3,合作場所,,
292574127,合作社,有限責任新竹縣中正國民小學員生消費合作社,5552464,新竹縣竹北市中山路190號,24.83611876603,121.0198866422,NP100-3,合作場所,,
292574128,合作社,有限責任新竹縣竹北市消費合作社,,新竹縣竹北市中正東路168號,24.835218521895,121.0155853021,NP100-3,合作場所,,
292574133,合作社,有限責任新竹縣竹北市戶政事務所員工消費合作社,03-5513546,新竹縣竹北市中正西路50之1號,24.839501517355,121.00434913274,NP100-3,合作場所,,
292574122,合作社,有限責任新竹縣立中正國民中學員生消費合作社,5977103,新竹縣湖口鄉鳳凰村仁興路2號,24.87495674587,121.01195040697,NP100-3,合作場所,,
292574123,合作社,有限責任新竹縣湖口鄉華興國民小學員生消費合作社,,新竹縣湖口鄉鳳凰村文化路171號,24.86981148085,121.01441628153,NP100-3,合作場所,,
292574120,合作社,保証責任新竹縣湖口鄉湖口社區合作農場,,新竹縣湖口鄉湖口村17鄰84號,24.882031936046,121.06190947086,NP100-3,合作場所,,
292574121,合作社,有限責任新竹縣勞工消費合作社,5982497,新竹縣湖口鄉鳳凰村6鄰仁愛路150號,24.872003015156,121.01063830249,NP100-3,合作場所,,
292574124,合作社,有限責任新竹縣立仁愛國民中學員生消費合作社,03-5530238,新竹縣竹北市三民路239號,24.832237878818,121.01442172234,NP100-3,合作場所,,
292574119,合作社,保證責任新竹縣湖口鄉湖南茶葉生產合作社,03-5691875,新竹縣湖口鄉湖南村3鄰19號,24.868793700562,121.06581440311,NP100-3,合作場所,,
292574125,合作社,有限責任國立竹北高級中學員生消費合作社,5517330,新竹縣竹北市中央路3號,24.836962786876,121.00411989234,NP100-3,合作場所,,
292574134,合作社,有限責任新竹縣竹北市機關聯合員工社,,新竹縣竹北市中正西路50號,24.839735542484,121.00419459538,NP100-3,合作場所,,
292574152,合作社,保證責任新竹縣第二毛豬運銷合作社,03-5953329,新竹縣竹東鎮中正路8號,24.729566350016,121.09221633645,NP100-3,合作場所,,
292574114,合作社,有限責任新竹縣中興國民小學員生消費合作社,5982043,新竹縣湖口鄉勝利村吉祥街43號,24.866277071837,121.02903854334,NP100-3,合作場所,,
292574115,合作社,有限責任新竹縣湖口鄉和興國民小學員生消費合作社,5992094,新竹縣湖口鄉和興村德興路930號,24.927118736077,121.03894161342,NP100-3,合作場所,,
292574112,合作社,有限責任新竹縣立湖口高級中學員生消費合作社,03-5690413,新竹縣湖口鄉中正村14-2號,24.901673429572,121.04763023302,NP100-3,合作場所,,
292574113,合作社,有限責任新竹縣信勢國民小學員生消費合作社,03-5992133,新竹縣湖口鄉信勢村成功路360號,24.906021087753,121.04381941183,NP100-3,合作場所,,
292574116,合作社,有限責任新竹縣立新湖國民中學員生消費合作社,03-6993432,新竹縣湖口鄉新湖路200號,24.902872148811,121.03571647519,NP100-3,合作場所,,
292574117,合作社,有限責任唐榮鐵工廠股份有限公司新竹縣員工社,,新竹縣湖口鄉新興路458號,24.875026114748,121.00314808147,NP100-3,合作場所,,
292574108,合作社,田療國小員生社,,新竹縣橫山鄉田寮村78號,24.713262862786,121.10868073904,NP100-3,合作場所,,
292574109,合作社,有限責任新竹縣橫山鄉田寮國民小學員生消費合作社,03-5934164,新竹縣橫山鄉田寮村田洋街128號,24.704309014326,121.10509292442,NP100-3,合作場所,,
292574110,合作社,有限責任新竹縣湖口鄉機關聯合員工社,,新竹縣湖口鄉中央街1號,24.900948674705,121.04797162712,NP100-3,合作場所,,
292574111,合作社,有限責任新竹縣稅捐稽徵處員工社,,新竹縣竹北市光明六路6號,24.825080340176,121.01458285034,NP100-3,合作場所,,
292574118,合作社,有限責任新竹縣新湖國民小學員生消費合作社,03-5992062,新竹縣湖口鄉民族街222號,24.905875021687,121.04743084938,NP100-3,合作場所,,
292574153,合作社,有限責任新竹縣竹北市東海國民小學員生消費合作社,03-5502961,新竹縣竹北市東興路一段839號,24.805831164822,121.0496241875,NP100-3,合作場所,,
292574103,合作社,有限責任新竹縣華山國民中學員生消費合作社,03-5934084,新竹縣橫山鄉橫山街一段29號,24.718277641687,121.10925861838,NP100-3,合作場所,,
292574102,合作社,有限責任新竹縣橫山鄉內灣國民學校員生消費合作社,,新竹縣橫山鄉橫山村五鄰100號,24.709025068492,121.13307056494,NP100-3,合作場所,,
292574104,合作社,有限責任新竹縣沙坑國民小學員生消費合作社,5811034,新竹縣橫山鄉沙坑村3鄰沙坑街48號,24.739334052253,121.16210682834,NP100-3,合作場所,,
292574100,合作社,有限責任新竹縣橫山鄉公所員工消費合作社,,新竹縣橫山鄉新興村10鄰145號,24.717419603416,121.15302179551,NP100-3,合作場所,,
292574101,合作社,有限責任新竹縣橫山國民小學員生消費合作社,03-5933780,新竹縣橫山鄉橫山村5鄰橫山100號,24.718600949975,121.1150677663,NP100-3,合作場所,,
292574105,合作社,有限責任台灣土地銀行湖口分行員工社,,新竹縣湖口鄉達生北路1號,,,,,,
292574106,合作社,有限責任新竹縣湖口鄉長安國民學校員生消費合作社,,新竹縣湖口鄉長安村長春路50號,24.887085317586,121.09523068358,NP100-3,合作場所,,
292574098,合作社,有限責任新竹縣橫山鄉大肚國民小學員生消費合作社,03-5932380,新竹縣橫山鄉中豐路二段157號,24.719015210883,121.14044020263,NP100-3,合作場所,,
292574094,合作社,有限責任新竹縣新豐鄉瑞興國民小學員生消費合作社,5680490,新竹縣新豐鄉瑞興村63號,24.911181697237,121.00859192212,NP100-3,合作場所,,
292574095,合作社,有限責任新竹縣福龍國民小學員生消費合作社,03-5993140,新竹縣新豐鄉福興村113號,24.930752296462,121.03599847501,NP100-3,合作場所,,
292574096,合作社,有限責任新竹縣新豐鄉公所員生社,,新竹縣新豐鄉重興村建興路217號,24.898674057619,120.98702152057,NP100-3,合作場所,,
292574097,合作社,有限責任新竹縣立橫山國民中學員生消費合作社,03-59631665,新竹縣橫山鄉中豐路2段415號,24.718570583837,121.14756855375,NP100-3,合作場所,,
292574099,合作社,保證限責任新竹縣橫山鄉大肚社區合作農場,03-932060,新竹縣橫山鄉大肚村中豐路二段116巷2號,,,,,,
292574107,合作社,新竹縣橫山鄉田寮茶葉生產合作社,,新竹縣橫山鄉田寮村11鄰石宅子28號,24.698858303368,121.10765560572,NP100-3,合作場所,,
292574154,合作社,保証責任新竹縣竹北鄉新溪社區合作農場,,新竹縣竹北市溪洲村10鄰75之1號,,,,,,
292574088,合作社,有限責任新竹縣立精華國民中學員生消費合作社,5689491,新竹縣新豐鄉後湖村166號,24.927218827932,121.01885579957,NP100-3,合作場所,,
292574087,合作社,有限責任新竹縣新豐鄉福興國民小學員生消費合作社,03-5680964,新竹縣新豐鄉後湖村108號,24.932754520066,121.00936213936,NP100-3,合作場所,,
292574089,合作社,有限責任新竹縣新豐國民中學員生消費合作社,5576573,新竹縣新豐鄉成德街36號,24.902397667382,120.99127283127,NP100-3,合作場所,,
292574085,合作社,有限責任新竹縣立忠孝國民中學員生消費合作社,03-5572555,新竹縣新豐鄉孝六街1號,24.879494683158,120.99946347038,NP100-3,合作場所,,
292574083,合作社,有限責任新竹縣新豐鄉第二消費合作社,,新竹縣新豐鄉埔和村19鄰埔頂219號,24.933106728121,120.99729672616,NP100-3,合作場所,,
292574084,合作社,保証責任新竹縣新豐鄉埔頂社區合作農場,,新竹縣新豐鄉埔和村1鄰2號,24.915483640211,120.99180018082,NP100-3,合作場所,,
292574086,合作社,新竹縣新豐鄉消費合作社,,新竹縣新豐鄉建興路一段32巷10號,24.873884493099,120.99577367156,NP100-3,合作場所,,
292574090,合作社,有限責任新竹縣紅毛鄉紅毛國民學校員生消費合作社,,新竹縣新豐鄉新庄路38號,24.902248254083,120.98858805883,NP100-3,合作場所,,
292574078,合作社,有限責任新竹縣照東國民小學員生消費合作社,5899807,新竹縣新埔鎮鹿鳴里9鄰36號,24.844458335793,121.12644191751,NP100-3,合作場所,,
292574079,合作社,有限責任新竹縣湖口國民小學員生消費合作社,03-5692403,新竹縣湖口鄉湖口村八德路二段182號,24.878779911775,121.06050996209,NP100-3,合作場所,,
292574076,合作社,有限責任新竹縣照門國民小學員生消費合作社,03-5899234,新竹縣新埔鎮照門里9鄰39號,24.847602775047,121.11654606776,NP100-3,合作場所,,
292574077,合作社,有限責任新竹縣立照門國民中學員生消費合作社,03-5890214,新竹縣新埔鎮照門里照鏡7號,24.848943358539,121.11130443523,NP100-3,合作場所,,
292574080,合作社,有限責任新竹縣立仰德高級中學員生消費合作社,03-5592158,新竹縣新豐鄉員山村133號,24.881043348655,121.00515830027,NP100-3,合作場所,,
292574074,合作社,保証責任新竹縣新埔鎮照門社區合作農場,,新竹縣新埔鎮照門里2鄰8之1號,24.845486536143,121.10401722009,NP100-3,合作場所,,
292574075,合作社,保證責任新竹縣第三毛豬運銷合作社,03-5899088,新竹縣新埔鎮照門里9鄰29號,24.846949931233,121.11582352344,NP100-3,合作場所,,
292574082,合作社,有限責任新竹縣新豐鄉埔和國民小學員生消費合作社,03-5680096,新竹縣新豐鄉埔和村18鄰466號,24.920906678548,120.98157905187,NP100-3,合作場所,,
292574091,合作社,有限責任新竹縣湖口鄉山崎國民小學員生消費合作社,5592714,新竹縣新豐鄉新興路291號,24.871927098021,120.99878518723,NP100-3,合作場所,,
292574092,合作社,有限責任新竹縣私立明新工業商業專科學校員生消費合作社,,新竹縣新豐鄉新興路一號,24.864266900986,120.99133907214,NP100-3,合作場所,,
292574068,合作社,有限責任新竹立縣新埔國民中學員生消費合作社,5882827,新竹縣新埔鎮中正路792號,24.827976444478,121.07096870776,NP100-3,合作場所,,
292574067,合作社,有限責任新竹縣新埔鎮機關聯合員工社,,新竹縣新埔鎮中正路776號,24.828042133727,121.07127816323,NP100-3,合作場所,,
292574069,合作社,有限責任新竹縣新埔鎮北平國民小學員生消費合作社,03-5882897,新竹縣新埔鎮北平里62號,24.852893086002,121.08660704569,NP100-3,合作場所,,
292574065,合作社,有限責任新竹縣枋寮國民小學員生消費合作社,03-5882081,新竹縣新埔鎮上寮里190號,24.835701106039,121.05511275752,NP100-3,合作場所,,
292574066,合作社,保証責任新竹縣新埔鎮上寮社區合作農場,,新竹縣新埔鎮上寮里1鄰33號,24.837240609179,121.05798929293,NP100-3,合作場所,,
292574070,合作社,有限責任新竹縣新埔鎮寶石國民學校員生消費合作社,,新竹縣新埔鎮寶石里關埔路內立段672號,24.816246396303,121.07905238765,NP100-3,合作場所,,
292574061,合作社,有限責任新竹縣立峨眉國民中學員生消費合作社,5800208,新竹縣峨眉鄉峨眉村峨眉街54號,24.690803497862,121.01807913257,NP100-3,合作場所,,
292574062,合作社,有限責任新竹縣峨眉國民小學員生消費合作社,03-5800674,新竹縣峨眉鄉峨眉村眉街4號,24.687273103177,121.02620091375,NP100-3,合作場所,,
292574059,合作社,保証責任新竹縣峨眉社區合作農場,,新竹縣峨眉鄉峨眉村8鄰30巷8號,24.689249628158,121.01933184841,NP100-3,合作場所,,
292574060,合作社,有限責任新竹縣峨眉鄉機關聯合員工社,,新竹縣峨眉鄉峨眉村8鄰8號,24.688975895224,121.01946426644,NP100-3,合作場所,,
292574063,合作社,"新竹縣  合作社",,新竹縣峨眉鄉石井村4鄰34-1號,24.698369777033,121.00036586441,NP100-3,合作場所,,
292574071,合作社,有限責任新竹縣文山國民小學員生消費合作社,03-5882918,新竹縣新埔鎮文山里8鄰國校街160號,24.825154669485,121.04779725206,NP100-3,合作場所,,
292574054,合作社,有限責任新竹縣原住民觀光文化產業勞動合作社,,新竹縣尖石鄉秀巒村一鄰1號,24.600516069524,121.27204389307,NP100-3,合作場所,,
292574053,合作社,有限責任新竹縣尖石鄉秀巒國民學校員生消費合作社,,新竹縣尖石鄉秀巒村4鄰19號,24.618202561785,121.28566381324,NP100-3,合作場所,,
292574055,合作社,新竹縣尖石鄉田埔社區社,,新竹縣尖石鄉秀巒村田埔3鄰32號,24.617553150385,121.2854968284,NP100-3,合作場所,,
292574051,合作社,新竹縣尖石鄉新樂國校員生消費合作社,,新竹縣尖石鄉新樂村水田一鄰10號,24.731741427068,121.25046388764,NP100-3,合作場所,,
292574052,合作社,有限責任新竹縣司馬庫斯原住民營造勞動合作社,03-5847600,新竹縣尖石鄉玉峰村14鄰司馬庫斯21號,24.578600664659,121.33587499415,NP100-3,合作場所,,
292574057,合作社,保證責任新竹縣尖石鄉雪霸泰雅合作農場,,新竹縣尖石鄉錦屏村9鄰27-3號,24.681907960329,121.23453439852,NP100-3,合作場所,,
292574048,合作社,新竹縣尖石鄉機關聯合員工消費合作社,,新竹縣尖石鄉嘉樂村2鄰26號,24.70488806426,121.20085446687,NP100-3,合作場所,,
292574049,合作社,有限責任新竹縣立尖石國民中學員生消費合作社,,新竹縣尖石鄉嘉樂村63號,24.705784848106,121.20266165735,NP100-3,合作場所,,
292574047,合作社,有限責任新竹縣立寶山國民中學員生消費合作社,03-5202103,新竹縣寶山鄉雙溪村三峰路18號,24.762170809373,120.99467402621,NP100-3,合作場所,,
292574050,合作社,新竹縣嘉興國民小學員生社,,新竹縣尖石鄉嘉樂村麥樹仁50號,24.705499405984,121.20186432591,NP100-3,合作場所,,
292574058,合作社,有限責任新竹縣峨眉鄉富興國民學校員生消費合作社,,新竹縣峨眉鄉富興村太平街8號,24.686812727622,120.98846276607,NP100-3,合作場所,,
292574072,合作社,有限責任新竹縣私立內思高級工業職業學校員生消費合作社,5882520,新竹縣新埔鎮楊新路一段40號,24.828256947437,121.08197818657,NP100-3,合作場所,,
292574041,合作社,有限責任新竹縣寶山鄉三峰國民小學員生消費合作社,03-5760057,新竹縣寶山鄉三峰村新湖路150號,24.721235601958,120.99701592075,NP100-3,合作場所,,
292574042,合作社,有限責任新竹縣寶山國民小學員生消費合作社,03-5761390,新竹縣寶山鄉寶山村寶山路416號,24.734107360027,121.02601965556,NP100-3,合作場所,,
292574156,合作社,有限責任新竹縣立博愛國民中學員生消費合作社,03-5530246,新竹縣竹北市縣政13路81號,,,,,,
292574159,合作社,有限責任新竹縣竹仁國民小學員生消費合作社,03-5552472,新竹縣竹北市豆子埔62-2號,24.835084123148,121.02328752885,NP100-3,合作場所,,
292574152,合作社,保證責任新竹縣第二毛豬運銷合作社,03-5953329,新竹縣竹東鎮中正路8號,24.729566350016,121.09221633645,NP100-3,合作場所,,
292574151,合作社,有限責任新竹縣竹北市新社國民小學員生消費合作社,03-5552026,新竹縣竹北市新社里40號,24.842757447247,121.00013800598,NP100-3,合作場所,,
292574153,合作社,有限責任新竹縣竹北市東海國民小學員生消費合作社,03-5502961,新竹縣竹北市東興路一段839號,24.805831164822,121.0496241875,NP100-3,合作場所,,
292574150,合作社,有限責任新竹肉品市場股份有限公司員工消費社,,新竹縣竹北市新庄里新庄子45-3號,24.833163313781,120.99049129152,NP100-3,合作場所,,
292574154,合作社,保証責任新竹縣竹北鄉新溪社區合作農場,,新竹縣竹北市溪洲村10鄰75之1號,,,,,,
292574147,合作社,有限責任新竹縣竹北市六家國民小學員生消費合作社,03-5502624,新竹縣竹北市嘉興路62號,24.815094591597,121.02544204482,NP100-3,合作場所,,
292574146,合作社,有限責任新竹縣六家國中社,,新竹縣竹北市嘉興路356號,24.820934034793,121.03199791625,NP100-3,合作場所,,
292574148,合作社,保証責任新竹縣竹北鄉大義社區合作農場,,新竹縣竹北市大義村一鄰64之15號,24.864970630308,120.96871573604,NP100-3,合作場所,,
292574149,合作社,有限責任新竹縣鳳岡國民小學員生消費合作社,03-5561928,新竹縣竹北市大義里鳳岡路3段200號,24.861473137506,120.96396552966,NP100-3,合作場所,,
292574155,合作社,有限責任新竹縣竹北地政事務所員工社,,新竹縣竹北市竹仁里三民路200號,24.833284369409,121.01319050005,NP100-3,合作場所,,
292574160,合作社,有限責任新竹縣竹北市新港國民小學員生消費合作社,03-5563275,新竹縣竹北市長青路一段333巷135號,24.850842590708,120.95503741694,NP100-3,合作場所,,
292574169,合作社,有限責任新竹縣達那原住民清潔勞動合作社,03-5965623,新竹縣竹東鎮中豐路二段233-1號9樓,24.723182130258,121.0916629039,NP100-3,合作場所,,
292574142,合作社,有限責任新竹縣學校員生消費合作社聯合社,03-5513307,新竹縣竹北市光明六路10號,24.826862141713,121.01291766173,NP100-3,合作場所,,
292574139,合作社,保證責任新竹縣毛豬運銷合作社,03-5516331,新竹縣竹北市仁義路76號5樓,24.836114024534,121.01520759008,NP100-3,合作場所,,
292574140,合作社,保證責任新竹縣衛生局員工社,,新竹縣竹北市光明七街1號,24.826079924151,121.01538100561,NP100-3,合作場所,,
292574141,合作社,保證責任新竹縣機關員工消費合作社聯合社,03-5518101,新竹縣竹北市光明六路10號,24.826862141713,121.01291766173,NP100-3,合作場所,,
292574143,合作社,有限責任新竹縣政府員工消費合作社,,新竹縣竹北市光明六路10號,24.826862141713,121.01291766173,NP100-3,合作場所,,
292574133,合作社,有限責任新竹縣竹北市戶政事務所員工消費合作社,03-5513546,新竹縣竹北市中正西路50之1號,24.839501517355,121.00434913274,NP100-3,合作場所,,
292574134,合作社,有限責任新竹縣竹北市機關聯合員工社,,新竹縣竹北市中正西路50號,24.839735542484,121.00419459538,NP100-3,合作場所,,
292574131,合作社,有限責任新竹縣立竹北國民中學員生消費合作社,03-5552064,新竹縣竹北市中正西路154號,24.839501517355,121.00434913274,NP100-3,合作場所,,
292574132,合作社,有限責任新竹縣私立義民中學員生消費合作社,,新竹縣竹北市中正西路15號,24.837375450906,121.00362630958,NP100-3,合作場所,,
292574135,合作社,有限責任新竹縣清潔勞動合作社,,新竹縣竹北市中華路1448巷52號,24.861139394462,120.99289556019,NP100-3,合作場所,,
292574130,合作社,有限責任新竹縣竹北市豐田國民小學員生消費合作社,03-5563930,新竹縣竹北市中正西路1377號,24.842245122652,120.96424128238,NP100-3,合作場所,,
292574136,合作社,有限責任新竹縣新竹工業區勞工消費社,,新竹縣竹北市中華路22號,24.827496294527,120.99881797149,NP100-3,合作場所,,
292574127,合作社,有限責任新竹縣中正國民小學員生消費合作社,5552464,新竹縣竹北市中山路190號,24.83611876603,121.0198866422,NP100-3,合作場所,,
292574128,合作社,有限責任新竹縣竹北市消費合作社,,新竹縣竹北市中正東路168號,24.835218521895,121.0155853021,NP100-3,合作場所,,
292574129,合作社,有限責任中華民國退伍軍人協會新竹縣分會員工社,,新竹縣竹北市中正東路439號,24.837425198941,121.00767252893,NP100-3,合作場所,,
292574138,合作社,保證責任新竹縣裝卸搬運勞動合作社,03-5550332,新竹縣竹北市中華路2巷20-1號,24.826276271486,120.99904188169,NP100-3,合作場所,,
292574144,合作社,有限責任新竹縣警察局員工社,,新竹縣竹北市光明六路12號,24.82693359236,121.01126295544,NP100-3,合作場所,,
292574124,合作社,有限責任新竹縣立仁愛國民中學員生消費合作社,03-5530238,新竹縣竹北市三民路239號,24.832237878818,121.01442172234,NP100-3,合作場所,,
292574122,合作社,有限責任新竹縣立中正國民中學員生消費合作社,5977103,新竹縣湖口鄉鳳凰村仁興路2號,24.87495674587,121.01195040697,NP100-3,合作場所,,
292574119,合作社,保證責任新竹縣湖口鄉湖南茶葉生產合作社,03-5691875,新竹縣湖口鄉湖南村3鄰19號,24.868793700562,121.06581440311,NP100-3,合作場所,,
292574120,合作社,保証責任新竹縣湖口鄉湖口社區合作農場,,新竹縣湖口鄉湖口村17鄰84號,24.882031936046,121.06190947086,NP100-3,合作場所,,
292574121,合作社,有限責任新竹縣勞工消費合作社,5982497,新竹縣湖口鄉鳳凰村6鄰仁愛路150號,24.872003015156,121.01063830249,NP100-3,合作場所,,
292574123,合作社,有限責任新竹縣湖口鄉華興國民小學員生消費合作社,,新竹縣湖口鄉鳳凰村文化路171號,24.86981148085,121.01441628153,NP100-3,合作場所,,
292574125,合作社,有限責任國立竹北高級中學員生消費合作社,5517330,新竹縣竹北市中央路3號,24.836962786876,121.00411989234,NP100-3,合作場所,,
292574115,合作社,有限責任新竹縣湖口鄉和興國民小學員生消費合作社,5992094,新竹縣湖口鄉和興村德興路930號,24.927118736077,121.03894161342,NP100-3,合作場所,,
292574116,合作社,有限責任新竹縣立新湖國民中學員生消費合作社,03-6993432,新竹縣湖口鄉新湖路200號,24.902872148811,121.03571647519,NP100-3,合作場所,,
292574114,合作社,有限責任新竹縣中興國民小學員生消費合作社,5982043,新竹縣湖口鄉勝利村吉祥街43號,24.866277071837,121.02903854334,NP100-3,合作場所,,
292574117,合作社,有限責任唐榮鐵工廠股份有限公司新竹縣員工社,,新竹縣湖口鄉新興路458號,24.875026114748,121.00314808147,NP100-3,合作場所,,
292574118,合作社,有限責任新竹縣新湖國民小學員生消費合作社,03-5992062,新竹縣湖口鄉民族街222號,24.905875021687,121.04743084938,NP100-3,合作場所,,
292574126,合作社,有限責任新竹縣竹北國民小學員生消費合作社,5552047,新竹縣竹北市中央路98號,24.838077315691,121.00217360156,NP100-3,合作場所,,
292574145,合作社,有限責任新竹縣博愛國民小學員生消費合作社,03-5519830,新竹縣竹北市光明六路72號,24.818848360333,121.0291964902,NP100-3,合作場所,,
292574170,合作社,有限責任新竹縣上?國民小學員生消費合作社,03-5942917,新竹縣竹東鎮中豐路二段399號,24.726167746546,121.08810240251,NP100-3,合作場所,,
292574105,合作社,有限責任台灣土地銀行湖口分行員工社,,新竹縣湖口鄉達生北路1號,,,,,,
292574106,合作社,有限責任新竹縣湖口鄉長安國民學校員生消費合作社,,新竹縣湖口鄉長安村長春路50號,24.887085317586,121.09523068358,NP100-3,合作場所,,
292574104,合作社,有限責任新竹縣沙坑國民小學員生消費合作社,5811034,新竹縣橫山鄉沙坑村3鄰沙坑街48號,24.739334052253,121.16210682834,NP100-3,合作場所,,
292574107,合作社,新竹縣橫山鄉田寮茶葉生產合作社,,新竹縣橫山鄉田寮村11鄰石宅子28號,24.698858303368,121.10765560572,NP100-3,合作場所,,
292574101,合作社,有限責任新竹縣橫山國民小學員生消費合作社,03-5933780,新竹縣橫山鄉橫山村5鄰橫山100號,24.718600949975,121.1150677663,NP100-3,合作場所,,
292574102,合作社,有限責任新竹縣橫山鄉內灣國民學校員生消費合作社,,新竹縣橫山鄉橫山村五鄰100號,24.709025068492,121.13307056494,NP100-3,合作場所,,
292574103,合作社,有限責任新竹縣華山國民中學員生消費合作社,03-5934084,新竹縣橫山鄉橫山街一段29號,24.718277641687,121.10925861838,NP100-3,合作場所,,
292574108,合作社,田療國小員生社,,新竹縣橫山鄉田寮村78號,24.713262862786,121.10868073904,NP100-3,合作場所,,
292574097,合作社,有限責任新竹縣立橫山國民中學員生消費合作社,03-59631665,新竹縣橫山鄉中豐路2段415號,24.718570583837,121.14756855375,NP100-3,合作場所,,
292574098,合作社,有限責任新竹縣橫山鄉大肚國民小學員生消費合作社,03-5932380,新竹縣橫山鄉中豐路二段157號,24.719015210883,121.14044020263,NP100-3,合作場所,,
292574096,合作社,有限責任新竹縣新豐鄉公所員生社,,新竹縣新豐鄉重興村建興路217號,24.898674057619,120.98702152057,NP100-3,合作場所,,
292574099,合作社,保證限責任新竹縣橫山鄉大肚社區合作農場,03-932060,新竹縣橫山鄉大肚村中豐路二段116巷2號,,,,,,
292574094,合作社,有限責任新竹縣新豐鄉瑞興國民小學員生消費合作社,5680490,新竹縣新豐鄉瑞興村63號,24.911181697237,121.00859192212,NP100-3,合作場所,,
292574095,合作社,有限責任新竹縣福龍國民小學員生消費合作社,03-5993140,新竹縣新豐鄉福興村113號,24.930752296462,121.03599847501,NP100-3,合作場所,,
292574100,合作社,有限責任新竹縣橫山鄉公所員工消費合作社,,新竹縣橫山鄉新興村10鄰145號,24.717419603416,121.15302179551,NP100-3,合作場所,,
292574109,合作社,有限責任新竹縣橫山鄉田寮國民小學員生消費合作社,03-5934164,新竹縣橫山鄉田寮村田洋街128號,24.704309014326,121.10509292442,NP100-3,合作場所,,
292574089,合作社,有限責任新竹縣新豐國民中學員生消費合作社,5576573,新竹縣新豐鄉成德街36號,24.902397667382,120.99127283127,NP100-3,合作場所,,
292574090,合作社,有限責任新竹縣紅毛鄉紅毛國民學校員生消費合作社,,新竹縣新豐鄉新庄路38號,24.902248254083,120.98858805883,NP100-3,合作場所,,
292574087,合作社,有限責任新竹縣新豐鄉福興國民小學員生消費合作社,03-5680964,新竹縣新豐鄉後湖村108號,24.932754520066,121.00936213936,NP100-3,合作場所,,
292574088,合作社,有限責任新竹縣立精華國民中學員生消費合作社,5689491,新竹縣新豐鄉後湖村166號,24.927218827932,121.01885579957,NP100-3,合作場所,,
292574091,合作社,有限責任新竹縣湖口鄉山崎國民小學員生消費合作社,5592714,新竹縣新豐鄉新興路291號,24.871927098021,120.99878518723,NP100-3,合作場所,,
292574084,合作社,保証責任新竹縣新豐鄉埔頂社區合作農場,,新竹縣新豐鄉埔和村1鄰2號,24.915483640211,120.99180018082,NP100-3,合作場所,,
292574085,合作社,有限責任新竹縣立忠孝國民中學員生消費合作社,03-5572555,新竹縣新豐鄉孝六街1號,24.879494683158,120.99946347038,NP100-3,合作場所,,
292574086,合作社,新竹縣新豐鄉消費合作社,,新竹縣新豐鄉建興路一段32巷10號,24.873884493099,120.99577367156,NP100-3,合作場所,,
292574092,合作社,有限責任新竹縣私立明新工業商業專科學校員生消費合作社,,新竹縣新豐鄉新興路一號,24.864266900986,120.99133907214,NP100-3,合作場所,,
292574079,合作社,有限責任新竹縣湖口國民小學員生消費合作社,03-5692403,新竹縣湖口鄉湖口村八德路二段182號,24.878779911775,121.06050996209,NP100-3,合作場所,,
292574080,合作社,有限責任新竹縣立仰德高級中學員生消費合作社,03-5592158,新竹縣新豐鄉員山村133號,24.881043348655,121.00515830027,NP100-3,合作場所,,
292574078,合作社,有限責任新竹縣照東國民小學員生消費合作社,5899807,新竹縣新埔鎮鹿鳴里9鄰36號,24.844458335793,121.12644191751,NP100-3,合作場所,,
292574082,合作社,有限責任新竹縣新豐鄉埔和國民小學員生消費合作社,03-5680096,新竹縣新豐鄉埔和村18鄰466號,24.920906678548,120.98157905187,NP100-3,合作場所,,
292574077,合作社,有限責任新竹縣立照門國民中學員生消費合作社,03-5890214,新竹縣新埔鎮照門里照鏡7號,24.848943358539,121.11130443523,NP100-3,合作場所,,
292574083,合作社,有限責任新竹縣新豐鄉第二消費合作社,,新竹縣新豐鄉埔和村19鄰埔頂219號,24.933106728121,120.99729672616,NP100-3,合作場所,,
292574093,合作社,新竹縣肉牛生產社,,新竹縣新豐鄉新豐村池府路163號,24.909537371219,120.97458905079,NP100-3,合作場所,,
292574110,合作社,有限責任新竹縣湖口鄉機關聯合員工社,,新竹縣湖口鄉中央街1號,24.900948674705,121.04797162712,NP100-3,合作場所,,
292574072,合作社,有限責任新竹縣私立內思高級工業職業學校員生消費合作社,5882520,新竹縣新埔鎮楊新路一段40號,24.828256947437,121.08197818657,NP100-3,合作場所,,
292574073,合作社,有限責任新竹縣新埔鎮新星國民小學員生消費合作社,03-5882078,新竹縣新埔鎮民生街28號,24.829860538423,121.07323458331,NP100-3,合作場所,,
292574071,合作社,有限責任新竹縣文山國民小學員生消費合作社,03-5882918,新竹縣新埔鎮文山里8鄰國校街160號,24.825154669485,121.04779725206,NP100-3,合作場所,,
292574074,合作社,保証責任新竹縣新埔鎮照門社區合作農場,,新竹縣新埔鎮照門里2鄰8之1號,24.845486536143,121.10401722009,NP100-3,合作場所,,
292574075,合作社,保證責任新竹縣第三毛豬運銷合作社,03-5899088,新竹縣新埔鎮照門里9鄰29號,24.846949931233,121.11582352344,NP100-3,合作場所,,
292574076,合作社,有限責任新竹縣照門國民小學員生消費合作社,03-5899234,新竹縣新埔鎮照門里9鄰39號,24.847602775047,121.11654606776,NP100-3,合作場所,,
292574111,合作社,有限責任新竹縣稅捐稽徵處員工社,,新竹縣竹北市光明六路6號,24.825080340176,121.01458285034,NP100-3,合作場所,,
292574066,合作社,保証責任新竹縣新埔鎮上寮社區合作農場,,新竹縣新埔鎮上寮里1鄰33號,24.837240609179,121.05798929293,NP100-3,合作場所,,
292574067,合作社,有限責任新竹縣新埔鎮機關聯合員工社,,新竹縣新埔鎮中正路776號,24.828042133727,121.07127816323,NP100-3,合作場所,,
292574062,合作社,有限責任新竹縣峨眉國民小學員生消費合作社,03-5800674,新竹縣峨眉鄉峨眉村眉街4號,24.687273103177,121.02620091375,NP100-3,合作場所,,
292574142,合作社,有限責任新竹縣學校員生消費合作社聯合社,03-5513307,新竹縣竹北市光明六路10號,24.826862141713,121.01291766173,NP100-3,合作場所,,
292574145,合作社,有限責任新竹縣博愛國民小學員生消費合作社,03-5519830,新竹縣竹北市光明六路72號,24.818848360333,121.0291964902,NP100-3,合作場所,,
292574141,合作社,保證責任新竹縣機關員工消費合作社聯合社,03-5518101,新竹縣竹北市光明六路10號,24.826862141713,121.01291766173,NP100-3,合作場所,,
292574140,合作社,保證責任新竹縣衛生局員工社,,新竹縣竹北市光明七街1號,24.826079924151,121.01538100561,NP100-3,合作場所,,
292574142,合作社,有限責任新竹縣學校員生消費合作社聯合社,03-5513307,新竹縣竹北市光明六路10號,24.826862141713,121.01291766173,NP100-3,合作場所,,
292574146,合作社,有限責任新竹縣六家國中社,,新竹縣竹北市嘉興路356號,24.820934034793,121.03199791625,NP100-3,合作場所,,
292574138,合作社,保證責任新竹縣裝卸搬運勞動合作社,03-5550332,新竹縣竹北市中華路2巷20-1號,24.826276271486,120.99904188169,NP100-3,合作場所,,
292574139,合作社,保證責任新竹縣毛豬運銷合作社,03-5516331,新竹縣竹北市仁義路76號5樓,24.836114024534,121.01520759008,NP100-3,合作場所,,
292574147,合作社,有限責任新竹縣竹北市六家國民小學員生消費合作社,03-5502624,新竹縣竹北市嘉興路62號,24.815094591597,121.02544204482,NP100-3,合作場所,,
292574159,合作社,有限責任新竹縣竹仁國民小學員生消費合作社,03-5552472,新竹縣竹北市豆子埔62-2號,24.835084123148,121.02328752885,NP100-3,合作場所,,
292574184,合作社,有限責任新竹縣竹中國民小學員生消費合作社,5823822,新竹縣竹東鎮竹中路104巷14號,24.780819924763,121.029868245,NP100-3,合作場所,,
292574132,合作社,有限責任新竹縣私立義民中學員生消費合作社,,新竹縣竹北市中正西路15號,24.837375450906,121.00362630958,NP100-3,合作場所,,
292574133,合作社,有限責任新竹縣竹北市戶政事務所員工消費合作社,03-5513546,新竹縣竹北市中正西路50之1號,24.839501517355,121.00434913274,NP100-3,合作場所,,
292574134,合作社,有限責任新竹縣竹北市機關聯合員工社,,新竹縣竹北市中正西路50號,24.839735542484,121.00419459538,NP100-3,合作場所,,
292574131,合作社,有限責任新竹縣立竹北國民中學員生消費合作社,03-5552064,新竹縣竹北市中正西路154號,24.839501517355,121.00434913274,NP100-3,合作場所,,
292574135,合作社,有限責任新竹縣清潔勞動合作社,,新竹縣竹北市中華路1448巷52號,24.861139394462,120.99289556019,NP100-3,合作場所,,
292574129,合作社,有限責任中華民國退伍軍人協會新竹縣分會員工社,,新竹縣竹北市中正東路439號,24.837425198941,121.00767252893,NP100-3,合作場所,,
292574126,合作社,有限責任新竹縣竹北國民小學員生消費合作社,5552047,新竹縣竹北市中央路98號,24.838077315691,121.00217360156,NP100-3,合作場所,,
292574127,合作社,有限責任新竹縣中正國民小學員生消費合作社,5552464,新竹縣竹北市中山路190號,24.83611876603,121.0198866422,NP100-3,合作場所,,
292574128,合作社,有限責任新竹縣竹北市消費合作社,,新竹縣竹北市中正東路168號,24.835218521895,121.0155853021,NP100-3,合作場所,,
292574130,合作社,有限責任新竹縣竹北市豐田國民小學員生消費合作社,03-5563930,新竹縣竹北市中正西路1377號,24.842245122652,120.96424128238,NP100-3,合作場所,,
292574136,合作社,有限責任新竹縣新竹工業區勞工消費社,,新竹縣竹北市中華路22號,24.827496294527,120.99881797149,NP100-3,合作場所,,
292574185,合作社,有限責任新竹縣立自強國民中學員生消費合作社,03-5103291,新竹縣竹東鎮自強路169號,24.745264507706,121.08560002851,NP100-3,合作場所,,
292574119,合作社,保證責任新竹縣湖口鄉湖南茶葉生產合作社,03-5691875,新竹縣湖口鄉湖南村3鄰19號,24.868793700562,121.06581440311,NP100-3,合作場所,,
292574120,合作社,保証責任新竹縣湖口鄉湖口社區合作農場,,新竹縣湖口鄉湖口村17鄰84號,24.882031936046,121.06190947086,NP100-3,合作場所,,
292574121,合作社,有限責任新竹縣勞工消費合作社,5982497,新竹縣湖口鄉鳳凰村6鄰仁愛路150號,24.872003015156,121.01063830249,NP100-3,合作場所,,
292574118,合作社,有限責任新竹縣新湖國民小學員生消費合作社,03-5992062,新竹縣湖口鄉民族街222號,24.905875021687,121.04743084938,NP100-3,合作場所,,
292574122,合作社,有限責任新竹縣立中正國民中學員生消費合作社,5977103,新竹縣湖口鄉鳳凰村仁興路2號,24.87495674587,121.01195040697,NP100-3,合作場所,,
292574115,合作社,有限責任新竹縣湖口鄉和興國民小學員生消費合作社,5992094,新竹縣湖口鄉和興村德興路930號,24.927118736077,121.03894161342,NP100-3,合作場所,,
292574116,合作社,有限責任新竹縣立新湖國民中學員生消費合作社,03-6993432,新竹縣湖口鄉新湖路200號,24.902872148811,121.03571647519,NP100-3,合作場所,,
292574117,合作社,有限責任唐榮鐵工廠股份有限公司新竹縣員工社,,新竹縣湖口鄉新興路458號,24.875026114748,121.00314808147,NP100-3,合作場所,,
292574123,合作社,有限責任新竹縣湖口鄉華興國民小學員生消費合作社,,新竹縣湖口鄉鳳凰村文化路171號,24.86981148085,121.01441628153,NP100-3,合作場所,,
292574111,合作社,有限責任新竹縣稅捐稽徵處員工社,,新竹縣竹北市光明六路6號,24.825080340176,121.01458285034,NP100-3,合作場所,,
292574112,合作社,有限責任新竹縣立湖口高級中學員生消費合作社,03-5690413,新竹縣湖口鄉中正村14-2號,24.901673429572,121.04763023302,NP100-3,合作場所,,
292574110,合作社,有限責任新竹縣湖口鄉機關聯合員工社,,新竹縣湖口鄉中央街1號,24.900948674705,121.04797162712,NP100-3,合作場所,,
292574113,合作社,有限責任新竹縣信勢國民小學員生消費合作社,03-5992133,新竹縣湖口鄉信勢村成功路360號,24.906021087753,121.04381941183,NP100-3,合作場所,,
292574108,合作社,田療國小員生社,,新竹縣橫山鄉田寮村78號,24.713262862786,121.10868073904,NP100-3,合作場所,,
292574109,合作社,有限責任新竹縣橫山鄉田寮國民小學員生消費合作社,03-5934164,新竹縣橫山鄉田寮村田洋街128號,24.704309014326,121.10509292442,NP100-3,合作場所,,
292574114,合作社,有限責任新竹縣中興國民小學員生消費合作社,5982043,新竹縣湖口鄉勝利村吉祥街43號,24.866277071837,121.02903854334,NP100-3,合作場所,,
292574124,合作社,有限責任新竹縣立仁愛國民中學員生消費合作社,03-5530238,新竹縣竹北市三民路239號,24.832237878818,121.01442172234,NP100-3,合作場所,,
292574103,合作社,有限責任新竹縣華山國民中學員生消費合作社,03-5934084,新竹縣橫山鄉橫山街一段29號,24.718277641687,121.10925861838,NP100-3,合作場所,,
292574104,合作社,有限責任新竹縣沙坑國民小學員生消費合作社,5811034,新竹縣橫山鄉沙坑村3鄰沙坑街48號,24.739334052253,121.16210682834,NP100-3,合作場所,,
292574102,合作社,有限責任新竹縣橫山鄉內灣國民學校員生消費合作社,,新竹縣橫山鄉橫山村五鄰100號,24.709025068492,121.13307056494,NP100-3,合作場所,,
292574105,合作社,有限責任台灣土地銀行湖口分行員工社,,新竹縣湖口鄉達生北路1號,,,,,,
292574099,合作社,保證限責任新竹縣橫山鄉大肚社區合作農場,03-932060,新竹縣橫山鄉大肚村中豐路二段116巷2號,,,,,,
292574100,合作社,有限責任新竹縣橫山鄉公所員工消費合作社,,新竹縣橫山鄉新興村10鄰145號,24.717419603416,121.15302179551,NP100-3,合作場所,,
292574101,合作社,有限責任新竹縣橫山國民小學員生消費合作社,03-5933780,新竹縣橫山鄉橫山村5鄰橫山100號,24.718600949975,121.1150677663,NP100-3,合作場所,,
292574106,合作社,有限責任新竹縣湖口鄉長安國民學校員生消費合作社,,新竹縣湖口鄉長安村長春路50號,24.887085317586,121.09523068358,NP100-3,合作場所,,
292574095,合作社,有限責任新竹縣福龍國民小學員生消費合作社,03-5993140,新竹縣新豐鄉福興村113號,24.930752296462,121.03599847501,NP100-3,合作場所,,
292574094,合作社,有限責任新竹縣新豐鄉瑞興國民小學員生消費合作社,5680490,新竹縣新豐鄉瑞興村63號,24.911181697237,121.00859192212,NP100-3,合作場所,,
292574096,合作社,有限責任新竹縣新豐鄉公所員生社,,新竹縣新豐鄉重興村建興路217號,24.898674057619,120.98702152057,NP100-3,合作場所,,
292574091,合作社,有限責任新竹縣湖口鄉山崎國民小學員生消費合作社,5592714,新竹縣新豐鄉新興路291號,24.871927098021,120.99878518723,NP100-3,合作場所,,
292574092,合作社,有限責任新竹縣私立明新工業商業專科學校員生消費合作社,,新竹縣新豐鄉新興路一號,24.864266900986,120.99133907214,NP100-3,合作場所,,
292574090,合作社,有限責任新竹縣紅毛鄉紅毛國民學校員生消費合作社,,新竹縣新豐鄉新庄路38號,24.902248254083,120.98858805883,NP100-3,合作場所,,
292574093,合作社,新竹縣肉牛生產社,,新竹縣新豐鄉新豐村池府路163號,24.909537371219,120.97458905079,NP100-3,合作場所,,
292574097,合作社,有限責任新竹縣立橫山國民中學員生消費合作社,03-59631665,新竹縣橫山鄉中豐路2段415號,24.718570583837,121.14756855375,NP100-3,合作場所,,
292574087,合作社,有限責任新竹縣新豐鄉福興國民小學員生消費合作社,03-5680964,新竹縣新豐鄉後湖村108號,24.932754520066,121.00936213936,NP100-3,合作場所,,
292574088,合作社,有限責任新竹縣立精華國民中學員生消費合作社,5689491,新竹縣新豐鄉後湖村166號,24.927218827932,121.01885579957,NP100-3,合作場所,,
292574089,合作社,有限責任新竹縣新豐國民中學員生消費合作社,5576573,新竹縣新豐鄉成德街36號,24.902397667382,120.99127283127,NP100-3,合作場所,,
292574098,合作社,有限責任新竹縣橫山鄉大肚國民小學員生消費合作社,03-5932380,新竹縣橫山鄉中豐路二段157號,24.719015210883,121.14044020263,NP100-3,合作場所,,
292574107,合作社,新竹縣橫山鄉田寮茶葉生產合作社,,新竹縣橫山鄉田寮村11鄰石宅子28號,24.698858303368,121.10765560572,NP100-3,合作場所,,
292574125,合作社,有限責任國立竹北高級中學員生消費合作社,5517330,新竹縣竹北市中央路3號,24.836962786876,121.00411989234,NP100-3,合作場所,,
292574186,合作社,有限責任衛生署署立竹東醫院員工消費合作社,5943248,新竹縣竹東鎮至善路52號,24.718675910734,121.09356106087,NP100-3,合作場所,,
292574217,合作社,有限責任新竹縣關西國民小學員生消費合作社,03-5872028,新竹縣關西鎮西安里中山路126號,24.702893282994,121.05411020173,NP100-3,合作場所,,
292571136,合作社,有限責任苗栗縣德安建築勞動合作社,,,,,,,,
292577510,合作社,苗栗縣舊社社區合作農場,,苗栗縣苑裡鎮舊社里1鄰11號,24.410268408228,120.6836227134,NP100-3,合作場所,,
292577511,合作社,保證責任苗栗縣通苑漁業生產合作社,,苗栗縣苑裡鎮舊社里3鄰24之14號,24.411732790457,120.68064054893,NP100-3,合作場所,,
292577509,合作社,有限責任苗栗縣中山國民小學員生消費合作社,,苗栗縣苑裡鎮社苓里四鄰51之1號,24.398542772423,120.67605098061,NP100-3,合作場所,,
292577512,合作社,有限責任苗栗縣山腳國民小學員生消費合作社,037-745024,苗栗縣苑裡鎮舊社里47號,24.416992234503,120.68510577497,NP100-3,合作場所,,
292577507,合作社,有限責任苗栗縣林森國民小學員生消費合作社,,"苗栗縣苑裡鎮水坡里 70 號",24.438315385775,120.67932188775,NP100-3,合作場所,,
292577508,合作社,有限責任苗栗縣猶盂國民學校員生消費合作社,,苗栗縣苑裡鎮猶盂里82號,,,,,,
292577513,合作社,苗栗縣第一消費合作社,,苗栗縣苗栗市大同里福星山18號,24.556881993415,120.81122067189,NP100-3,合作場所,,
292577515,合作社,有限責任苗栗縣竹南建築物公用合作社,,苗栗縣苑裡鎮苑南里世界路7號,24.439832930654,120.65663651702,NP100-3,合作場所,,
292577505,合作社,苗栗縣苑裡鎮山柑社區合作農場,,苗栗縣苑裡鎮山柑里八鄰82號,24.402116298148,120.67161875321,NP100-3,合作場所,,
292577501,合作社,有限責任苗栗縣苑裡國民中學員生消費合作社,,苗栗縣苑裡鎮客庄里1鄰2號,24.438023439585,120.66424332738,NP100-3,合作場所,,
292577502,合作社,有限責任苗栗縣立苑裡高級中學員生消費合作社,037-861042,苗栗縣苑裡鎮客庄里1鄰2號,24.438023439585,120.66424332738,NP100-3,合作場所,,
292577500,合作社,有限責任苗栗縣文苑國民小學員生消費合作社,037-861410,苗栗縣苑裡鎮南房裡里2鄰14號,,,,,,
292577503,合作社,有限責任國立苑裡高級中學員生消費合作社,037-861042,苗栗縣苑裡鎮客庄里1鄰2號,24.438023439585,120.66424332738,NP100-3,合作場所,,
292577504,合作社,有限責任苗栗縣苑裡鎮公所員工社,,苗栗縣苑裡鎮客庄里信義路1號,24.439656674163,120.65322762689,NP100-3,合作場所,,
292577506,合作社,有限責任苗栗縣客庄國民小學員生消費合作社,037-865646,苗栗縣苑裡鎮新興路21號,24.439576685074,120.65480988815,NP100-3,合作場所,,
292577516,合作社,有限責任苗栗縣蕉埔國民小學員生消費合作社,037-741574,苗栗縣苑裡鎮蕉埔里8鄰87之2號,24.413178622708,120.7134515632,NP100-3,合作場所,,
292577517,合作社,有限責任苗栗縣大福國民小學員生消費合作社,,苗栗縣苗栗市,,,,,,
292577490,合作社,有限責任苗栗縣海口國民小學員生消費合作社,037-461354,苗栗縣竹南鎮海口里7鄰93號,24.676148431987,120.8604200919,NP100-3,合作場所,,
292577491,合作社,苗栗縣竹南鎮塭內社區合作農,,苗栗縣竹南鎮港墘里塭內10鄰8-1號,24.671614090192,120.85210751821,NP100-3,合作場所,,
292577489,合作社,有限責任苗栗縣鹿產品運銷合作社,860177,苗栗縣苑裡鎮客庄里8鄰客庄115號,24.43528867015,120.65715899275,NP100-3,合作場所,,
292577492,合作社,苗栗縣福興國校員生社,,苗栗縣竹南鎮福興里58-2號,,,,,,
292577486,合作社,有限責任台灣菸酒股份有限公司竹南啤酒廠員工消費合作社,037-583001,苗栗縣竹南鎮崎頂里和興路345號,24.711989960367,120.8767886907,NP100-3,合作場所,,
292577487,合作社,有限責任苗栗縣新南國民小學員生消費合作社,037-613843,苗栗縣竹南鎮新南里五谷二號,24.687652094802,120.88496144493,NP100-3,合作場所,,
292577488,合作社,有限責任苗栗縣竹南地政事務所員工消費合作社,037-468860,苗栗縣竹南鎮正南里中正路96號,24.683936916001,120.87531138969,NP100-3,合作場所,,
292577493,合作社,有限責任苗栗縣竹興國民小學員生消費合作社,037-465037,苗栗縣竹南鎮竹圍街27號,24.687662802939,120.86486880698,NP100-3,合作場所,,
292577482,合作社,有限責任苗栗縣村耕農業生產合作社,037-480490,苗栗縣竹南鎮山佳里10鄰華興街100巷1號,24.701974992003,120.88343226669,NP100-3,合作場所,,
292577483,合作社,有限責任苗栗縣照南國民小學員生消費合作社,,苗栗縣竹南鎮山佳里14鄰,24.701150643635,120.88245070403,NP100-3,合作場所,,
292577481,合作社,有限責任苗栗縣中興高級商工職業學校員生消費合作社,,苗栗縣竹南鎮大營路211號,24.688032522967,120.87256372115,NP100-3,合作場所,,
292577484,合作社,苗栗縣苑裡鎮中正社區合作農場,,苗栗縣苑裡鎮中正里14鄰113號,24.429202635259,120.6602524891,NP100-3,合作場所,,
292577480,合作社,保證責任苗栗縣竹南鎮手工業生產合作社,037-584758,苗栗縣竹南鎮大埔里和興路18號,24.706313528172,120.88557592268,NP100-3,合作場所,,
292577485,合作社,有限責任台灣省家畜衛生試驗所動物用藥品檢定分所員工消費合作社,,苗栗縣竹南鎮岐頂里牧場21號,24.713547829099,120.87253058367,NP100-3,合作場所,,
292577494,合作社,有限責任苗栗縣頂埔國民小學員生消費合作社,,苗栗縣竹南鎮頂埔里2鄰110號,24.708157761111,120.92406130345,NP100-3,合作場所,,
292577474,合作社,有限責任苗栗縣立照南國民中學員生消費合作社,472750,苗栗縣竹南鎮公教路2號,24.693630736542,120.87697533578,NP100-3,合作場所,,
292577476,合作社,苗栗縣私立君毅中學員生消費合作社,,苗栗縣竹南鎮公義路245號,24.701187487368,120.88315276445,NP100-3,合作場所,,
292577478,合作社,有限責任苗栗縣竹南鎮消費合作社,,苗栗縣竹南鎮博愛街323號,24.68819548053,120.86809719748,NP100-3,合作場所,,
292577495,合作社,有限責任苗栗縣製糖勞動合作社,,苗栗縣竹南鎮頂埔里台糖1號,24.709856675074,120.92104502654,NP100-3,合作場所,,
292577471,合作社,有限責任苗栗縣竹南國民小學員生消費合作社,462020,苗栗縣竹南鎮中正路146號,24.683658307335,120.86980142817,NP100-3,合作場所,,
292577473,合作社,有限責任國立竹南高級中學員生消費合作社,460801,苗栗縣竹南鎮中正路98號,24.683863100383,120.87479469826,NP100-3,合作場所,,
292577498,合作社,有限責任苗栗縣中正國民小學員生消費合作社,037-861244,苗栗縣苑裡鎮中正里111號,24.429165556775,120.66115197433,NP100-3,合作場所,,
292577518,合作社,有限責任台灣苗栗地方法院暨檢察署員工消費合作社,,苗栗縣苗栗市中正路1149號,24.546053449872,120.81672004658,NP100-3,合作場所,,
292577553,合作社,苗栗縣合作社聯合社,,苗栗縣苗栗市縣府路100號,24.564984555001,120.82079697606,NP100-3,合作場所,,
292577467,合作社,有限責任苗栗縣獅潭國民中學員生消費合作社,,苗栗縣獅潭鄉新店村21號,24.542718375334,120.94687227823,NP100-3,合作場所,,
292577468,合作社,有限責任苗栗縣獅潭鄉公所員工消費社,,苗栗縣獅潭鄉新店村98號,24.540946512199,120.9215616696,NP100-3,合作場所,,
292577465,合作社,有限責任苗栗縣泰安國中員生消費合作社,,苗栗縣泰安鄉大興村1鄰14號,24.418831203841,120.9098468354,NP100-3,合作場所,,
292577466,合作社,有限責任苗栗縣泰安鄉公所員工消費社,,苗栗縣泰安鄉清安村洗水坑69號,24.447243797748,120.90812247156,NP100-3,合作場所,,
292577469,合作社,有限責任苗栗縣豐林國民小學員生消費合作社,,苗栗縣獅潭鄉新豊村42號,,,,,,
292577462,合作社,有限責任苗栗縣同光國民小學員生消費合作社,037-450738,苗栗縣後龍鎮龍津里94號,24.610127113929,120.76176482158,NP100-3,合作場所,,
292577483,合作社,有限責任苗栗縣照南國民小學員生消費合作社,,苗栗縣竹南鎮山佳里14鄰,24.701150643635,120.88245070403,NP100-3,合作場所,,
292577484,合作社,苗栗縣苑裡鎮中正社區合作農場,,苗栗縣苑裡鎮中正里14鄰113號,24.429202635259,120.6602524891,NP100-3,合作場所,,
292577489,合作社,有限責任苗栗縣鹿產品運銷合作社,860177,苗栗縣苑裡鎮客庄里8鄰客庄115號,24.43528867015,120.65715899275,NP100-3,合作場所,,
292577498,合作社,有限責任苗栗縣中正國民小學員生消費合作社,037-861244,苗栗縣苑裡鎮中正里111號,24.429165556775,120.66115197433,NP100-3,合作場所,,
292577476,合作社,苗栗縣私立君毅中學員生消費合作社,,苗栗縣竹南鎮公義路245號,24.701187487368,120.88315276445,NP100-3,合作場所,,
292577478,合作社,有限責任苗栗縣竹南鎮消費合作社,,苗栗縣竹南鎮博愛街323號,24.68819548053,120.86809719748,NP100-3,合作場所,,
292577474,合作社,有限責任苗栗縣立照南國民中學員生消費合作社,472750,苗栗縣竹南鎮公教路2號,24.693630736542,120.87697533578,NP100-3,合作場所,,
292577480,合作社,保證責任苗栗縣竹南鎮手工業生產合作社,037-584758,苗栗縣竹南鎮大埔里和興路18號,24.706313528172,120.88557592268,NP100-3,合作場所,,
292577471,合作社,有限責任苗栗縣竹南國民小學員生消費合作社,462020,苗栗縣竹南鎮中正路146號,24.683658307335,120.86980142817,NP100-3,合作場所,,
292577473,合作社,有限責任國立竹南高級中學員生消費合作社,460801,苗栗縣竹南鎮中正路98號,24.683863100383,120.87479469826,NP100-3,合作場所,,
292577481,合作社,有限責任苗栗縣中興高級商工職業學校員生消費合作社,,苗栗縣竹南鎮大營路211號,24.688032522967,120.87256372115,NP100-3,合作場所,,
292577468,合作社,有限責任苗栗縣獅潭鄉公所員工消費社,,苗栗縣獅潭鄉新店村98號,24.540946512199,120.9215616696,NP100-3,合作場所,,
292577469,合作社,有限責任苗栗縣豐林國民小學員生消費合作社,,苗栗縣獅潭鄉新豊村42號,,,,,,
292577467,合作社,有限責任苗栗縣獅潭國民中學員生消費合作社,,苗栗縣獅潭鄉新店村21號,24.542718375334,120.94687227823,NP100-3,合作場所,,
292577470,合作社,有限責任苗栗縣永興國民學校員生消費合作社,,苗栗縣獅潭鄉百壽村2號,24.593482965214,120.94990292488,NP100-3,合作場所,,
292577482,合作社,有限責任苗栗縣村耕農業生產合作社,037-480490,苗栗縣竹南鎮山佳里10鄰華興街100巷1號,24.701974992003,120.88343226669,NP100-3,合作場所,,
292577500,合作社,有限責任苗栗縣文苑國民小學員生消費合作社,037-861410,苗栗縣苑裡鎮南房裡里2鄰14號,,,,,,
292577527,合作社,有限責任苗栗縣政府國際文化觀光局員工消費合作社,037-352961,苗栗縣苗栗市北苗里自治路50號,24.565967886999,120.82041519266,NP100-3,合作場所,,
292577461,合作社,有限責任苗栗縣龍坑國民小學員生消費合作社,037-722027,苗栗縣後龍鎮龍坑里158號,24.601926014212,120.77815390146,NP100-3,合作場所,,
292577458,合作社,有限責任苗栗縣私立仁德醫護管理專科學校員生消費合作社,,苗栗縣後龍鎮溪洲里砂崙湖79-9號,24.623564206681,120.78293874234,NP100-3,合作場所,,
292577459,合作社,有限責任苗栗縣大山國民小學員生消費合作社,037-432784,苗栗縣後龍鎮灣寶里7鄰109號,24.645664421355,120.80952798024,NP100-3,合作場所,,
292577460,合作社,有限責任苗栗縣富田國民小學員生消費合作社,,苗栗縣後龍鎮豐富里55號,24.600509908396,120.82835700437,NP100-3,合作場所,,
292577462,合作社,有限責任苗栗縣同光國民小學員生消費合作社,037-450738,苗栗縣後龍鎮龍津里94號,24.610127113929,120.76176482158,NP100-3,合作場所,,
292577455,合作社,有限責任苗栗縣外埔國民小學員生消費合作社,037-431809,苗栗縣後龍鎮海埔里3鄰8號,24.649207979212,120.77493287522,NP100-3,合作場所,,
292577453,合作社,有限責任苗栗縣成功國民小學員生消費合作社,,苗栗縣後龍鎮水尾里12鄰104-1號,24.632680457387,120.76174716815,NP100-3,合作場所,,
292577454,合作社,有限責任苗栗縣獅潭國民小學員生消費合作社,,苗栗縣獅潭鄉新店村129號,24.540084812956,120.92056854752,NP100-3,合作場所,,
292577456,合作社,有限責任苗栗縣海寶國民小學員生消費合作社,,苗栗縣後龍鎮海寶里5鄰52-2號,24.661823472859,120.82173852011,NP100-3,合作場所,,
292577452,合作社,苗栗縣後龍鎮水秀果菜生產合作社,,苗栗縣後龍鎮水尾里10鄰90號,24.633831802045,120.76323059815,NP100-3,合作場所,,
292577457,合作社,有限責任苗栗縣溪洲國民小學員生消費合作社,037-723853,苗栗縣後龍鎮溪洲里7鄰87-3號,24.620955836219,120.77674065139,NP100-3,合作場所,,
292577463,合作社,保證責任苗栗縣泰安鄉馥園合作農場,,苗栗縣泰安鄉中興村6鄰司馬陸38號,24.408734034971,120.94184781853,NP100-3,合作場所,,
292577449,合作社,保證責任苗栗縣後龍鎮外埔聯合社區合作農場,,苗栗縣後龍鎮外埔里14鄰109號,24.651668674177,120.7751118211,NP100-3,合作場所,,
292577448,合作社,有限責任苗栗縣新港國民小學員生消費合作社,037-722547,苗栗縣後龍鎮埔頂里頂東路30號,24.612827867889,120.81942166415,NP100-3,合作場所,,
292577450,合作社,有限責任苗栗縣立維真國民中學員生消費合作社,037-722537,苗栗縣後龍鎮大庄里中山路252號,24.612202411659,120.79468212665,NP100-3,合作場所,,
292577445,合作社,有限責任苗栗縣後龍鎮公所員工消費合作社,752381,苗栗縣後龍鎮中山路152號,24.613738885731,120.7920166046,NP100-3,合作場所,,
292577446,合作社,保證責任苗栗縣後龍鎮南龍社區合作農場,,苗栗縣後龍鎮南龍里勝利街20鄰23b-1號,24.613245431547,120.78335663777,NP100-3,合作場所,,
292577447,合作社,有限責任苗栗縣立後龍國民中學員生消費合作社,037-722028,苗栗縣後龍鎮南龍里勝利街250號,24.616630606995,120.78461834372,NP100-3,合作場所,,
292577451,合作社,有限責任苗栗縣後龍鎮後龍國民小學員生消費合作社,037-722049,苗栗縣後龍鎮大庄里成功路254號,24.613833458607,120.7961372883,NP100-3,合作場所,,
292577464,合作社,有限責任苗栗縣泰安鄉原住民建築勞動合作社,,苗栗縣泰安鄉士林村六鄰馬那邦42-2號,24.345062367209,120.93015497087,NP100-3,合作場所,,
292577439,合作社,有限責任苗栗縣立大湖國民中學員生消費合作社,037-991054,苗栗縣大湖鄉民族路80號,24.426857080439,120.87098254344,NP100-3,合作場所,,
292577438,合作社,有限責任苗栗縣栗林國民小學員生消費合作社,037-951335,苗栗縣大湖鄉栗林村四份61號,24.373791046663,120.84320777807,NP100-3,合作場所,,
292577440,合作社,有限責任苗栗縣南湖國民小學員生消費合作社,,苗栗縣大湖鄉義和村106號,24.386768896457,120.86582301474,NP100-3,合作場所,,
292577434,合作社,有限責任苗栗縣大湖國民小學員生消費合作社,992508,苗栗縣大湖鄉大湖村中正路育英巷11號,24.42136766762,120.86980527721,NP100-3,合作場所,,
292577435,合作社,保證責任苗栗縣欣欣合作農場,,苗栗縣大湖鄉富興村八寮灣28之2號,24.437756976482,120.87164999125,NP100-3,合作場所,,
292577432,合作社,有限責任苗栗縣大湖高級農工職業學校員生消費合作社,,苗栗縣大湖鄉大寮村竹篙屋68號,24.421354942673,120.86157061631,NP100-3,合作場所,,
292577433,合作社,有限責任苗栗縣大湖地政事務所員工社,,苗栗縣大湖鄉大湖村中正路48號,24.422470170385,120.86737196383,NP100-3,合作場所,,
292577436,合作社,有限責任苗栗縣華興國民小學員生消費合作社,037-991326,苗栗縣大湖鄉富興村水尾2號,24.443920675104,120.87436700517,NP100-3,合作場所,,
292577441,合作社,有限責任苗栗縣武榮國民小學員生消費合作社,037-992816,苗栗縣大湖鄉義和村淋漓坪7鄰77號,24.382739095303,120.86764738428,NP100-3,合作場所,,
292577429,合作社,有限責任苗栗縣原住民景觀綠化園藝勞動合作社,,苗栗縣南庄鄉蓬萊村八卦力11鄰18號,24.529474825903,120.96076164365,NP100-3,合作場所,,
292577428,合作社,苗栗縣南莊鄉蓬萊社區合作社,,苗栗縣南庄鄉蓬萊村七鄰紅毛館九五號,24.560980396295,120.98245631515,NP100-3,合作場所,,
292577430,合作社,有限責任苗栗縣大湖鄉公所員工消費合作社,991111*128,苗栗縣大湖鄉中正路80號,24.423385565728,120.86617423539,NP100-3,合作場所,,
292577426,合作社,有限責任苗栗縣田美國民小學員生消費合作社,037-822445,苗栗縣南庄鄉田美村9鄰191號,24.629340205731,121.00848235853,NP100-3,合作場所,,
292577427,合作社,有限責任苗栗縣蓬萊國民小學員生消費合作社,823385,苗栗縣南庄鄉蓬萊村19鄰118號,24.54280246914,120.97081876518,NP100-3,合作場所,,
292577431,合作社,有限責任苗栗縣大南國民小學員生消費合作社,,苗栗縣大湖鄉大南村63號,24.417762199841,120.89917326265,NP100-3,合作場所,,
292577444,合作社,有限責任苗栗縣後龍鎮中和國民小學員生消費合作社,037-921451,苗栗縣後龍鎮中和里14鄰152號,24.588097298369,120.73473170337,NP100-3,合作場所,,
292577465,合作社,有限責任苗栗縣泰安國中員生消費合作社,,苗栗縣泰安鄉大興村1鄰14號,24.418831203841,120.9098468354,NP100-3,合作場所,,
292577419,合作社,有限責任苗栗縣南庄國民中學員生消費合作社,,苗栗縣南庄鄉中正路165號,24.604560959349,121.00059736919,NP100-3,合作場所,,
292577420,合作社,有限責任苗栗縣南埔國民小學員生消費合作社,037-822324,苗栗縣南庄鄉南富村大南埔134號,24.635182572495,120.97306373361,NP100-3,合作場所,,
292577421,合作社,有限責任苗栗縣南庄國民小學員生消費合作社,,苗栗縣南庄鄉東村195號,24.605542212663,121.00113667929,NP100-3,合作場所,,
292577417,合作社,有限責任苗栗縣豐田國民小學員生消費合作社,04-25892164,苗栗縣卓蘭鎮豐田國小員生消費合作社,,,,,,
292577418,合作社,保証責任苗栗縣卓蘭鎮豐田社區合作社,04-25891911,苗栗縣卓蘭鎮豐田里9鄰115之2號,24.325621854293,120.81941531165,NP100-3,合作場所,,
292577422,合作社,有限責任苗栗縣南庄鄉公所員工社,,苗栗縣南庄鄉東村大同路1號,24.596979150548,121.00071928832,NP100-3,合作場所,,
292577415,合作社,有限責任國立卓蘭實驗高級中學員生消費合作社,04-25892007,苗栗縣卓蘭鎮老庄村161號,24.312248579553,120.82901926414,NP100-3,合作場所,,
292577413,合作社,苗栗縣卓蘭鎮大統合作農場,,苗栗縣卓蘭鎮新厝里五鄰41號,24.311669556216,120.82554214794,NP100-3,合作場所,,
292577414,合作社,有限責任苗栗縣景山國民小學員生消費合作社,,苗栗縣卓蘭鎮景山里5鄰88號,24.352630629396,120.86525525367,NP100-3,合作場所,,
292577416,合作社,保證責任苗栗縣卓蘭鎮花卉生產合作社,,苗栗縣卓蘭鎮西坪里四鄰西坪43之2號,24.334180447399,120.82593596266,NP100-3,合作場所,,
292577423,合作社,有限責任苗栗縣東河國民小學員生消費合作社,,苗栗縣南庄鄉東河村3鄰132號,24.600582479498,121.04039752792,NP100-3,合作場所,,
292577408,合作社,保證責任苗栗縣卓蘭鎮仙水合作農場,04-25921109,苗栗縣卓蘭鎮坪林里100之8號,24.331511706189,120.87595591611,NP100-3,合作場所,,
292577409,合作社,有限責任苗栗縣評林國民小學員生消費合作社,04-25921334,苗栗縣卓蘭鎮坪林里86-2號,24.335815652007,120.87630205481,NP100-3,合作場所,,
292577410,合作社,有限責任苗栗縣雙連國民小學員生消費合作社,,苗栗縣卓蘭鎮坪林里雙連16-1號,24.33776436878,120.84856215579,NP100-3,合作場所,,
292577407,合作社,保証責任苗栗縣卓蘭鎮東盛社區合作社,04-25891164,苗栗縣卓蘭鎮內灣里東盛18-2號,24.297320858314,120.86004873913,NP100-3,合作場所,,
292577411,合作社,有限責任苗栗縣卓蘭國民中學員生消費合作社,,苗栗縣卓蘭鎮志庄村167號,,,,,,
292577405,合作社,有限責任苗栗縣內灣國民小學員生消費合作社,,苗栗縣卓蘭鎮內灣里120號,24.299094659652,120.8494845858,NP100-3,合作場所,,
292577406,合作社,苗栗縣卓蘭鎮吉峰合作農場,,苗栗縣卓蘭鎮內灣里六鄰45號,24.297205784823,120.85980799471,NP100-3,合作場所,,
292577412,合作社,有限責任苗栗縣卓蘭國民小學員生消費合作社,04-25892008,苗栗縣卓蘭鎮新厝里中山路125號,24.312206550246,120.82478275497,NP100-3,合作場所,,
292577424,合作社,有限責任苗栗縣南庄鄉東河消費合作社,,苗栗縣南庄鄉東河村89號,24.604107849813,121.04218444028,NP100-3,合作場所,,
292577400,合作社,保證責任苗栗縣卓蘭鎮傑農合作農場,,苗栗縣卓蘭鎮上新里食水坑10鄰2之3號,24.308213390209,120.82978143623,NP100-3,合作場所,,
292577401,合作社,保証責任苗栗縣卓蘭鎮食水坑社區合作社,04-25893706,苗栗縣卓蘭鎮上新里食水坑32號,24.307963700739,120.84950535447,NP100-3,合作場所,,
292577397,合作社,有限責任行政院農業委員會苗栗區農業改良場員工消費合作社,037-222111,苗栗縣公館鄉館南村261號,24.495143617129,120.8270828332,NP100-3,合作場所,,
292577396,合作社,有限責任臺灣省政府農林廳蠶業改良場員工社,,苗栗縣公館鄉館南村120號,24.502351513013,120.82356005599,NP100-3,合作場所,,
292577398,合作社,有限責任苗栗縣立鶴岡國民中學員生消費合作社,037-226204,苗栗縣公館鄉鶴岡村178號,24.528659454512,120.83061762594,NP100-3,合作場所,,
292577395,合作社,有限責任苗栗縣公館鄉公所員工消費社,,苗栗縣公館鄉館中村宮前路6-1號,24.499836009539,120.82648931287,NP100-3,合作場所,,
292577399,合作社,有限責任苗栗縣卓蘭鎮大茂果菜生產合作社,,苗栗縣卓蘭鎮,,,,,,
292577402,合作社,有限責任苗栗縣卓蘭鎮公所員工社,,苗栗縣卓蘭鎮中山路127號,24.31296457721,120.82449361866,NP100-3,合作場所,,
292577390,合作社,有限責任苗栗縣福基國民小學員生消費合作社,037-224020,苗栗縣公館鄉福基村275號,24.469018918842,120.8327988252,NP100-3,合作場所,,
292577391,合作社,有限責任苗栗縣福德國民小學員生消費合作社,222003,苗栗縣公館鄉福德村6鄰65號,24.466077516378,120.86132832055,NP100-3,合作場所,,
292577434,合作社,有限責任苗栗縣大湖國民小學員生消費合作社,992508,苗栗縣大湖鄉大湖村中正路育英巷11號,24.42136766762,120.86980527721,NP100-3,合作場所,,
292577452,合作社,苗栗縣後龍鎮水秀果菜生產合作社,,苗栗縣後龍鎮水尾里10鄰90號,24.633831802045,120.76323059815,NP100-3,合作場所,,
292577416,合作社,保證責任苗栗縣卓蘭鎮花卉生產合作社,,苗栗縣卓蘭鎮西坪里四鄰西坪43之2號,24.334180447399,120.82593596266,NP100-3,合作場所,,
292577415,合作社,有限責任國立卓蘭實驗高級中學員生消費合作社,04-25892007,苗栗縣卓蘭鎮老庄村161號,24.312248579553,120.82901926414,NP100-3,合作場所,,
292577417,合作社,有限責任苗栗縣豐田國民小學員生消費合作社,04-25892164,苗栗縣卓蘭鎮豐田國小員生消費合作社,,,,,,
292577418,合作社,保証責任苗栗縣卓蘭鎮豐田社區合作社,04-25891911,苗栗縣卓蘭鎮豐田里9鄰115之2號,24.325621854293,120.81941531165,NP100-3,合作場所,,
292577412,合作社,有限責任苗栗縣卓蘭國民小學員生消費合作社,04-25892008,苗栗縣卓蘭鎮新厝里中山路125號,24.312206550246,120.82478275497,NP100-3,合作場所,,
292577411,合作社,有限責任苗栗縣卓蘭國民中學員生消費合作社,,苗栗縣卓蘭鎮志庄村167號,,,,,,
292577413,合作社,苗栗縣卓蘭鎮大統合作農場,,苗栗縣卓蘭鎮新厝里五鄰41號,24.311669556216,120.82554214794,NP100-3,合作場所,,
292577409,合作社,有限責任苗栗縣評林國民小學員生消費合作社,04-25921334,苗栗縣卓蘭鎮坪林里86-2號,24.335815652007,120.87630205481,NP100-3,合作場所,,
292577410,合作社,有限責任苗栗縣雙連國民小學員生消費合作社,,苗栗縣卓蘭鎮坪林里雙連16-1號,24.33776436878,120.84856215579,NP100-3,合作場所,,
292577414,合作社,有限責任苗栗縣景山國民小學員生消費合作社,,苗栗縣卓蘭鎮景山里5鄰88號,24.352630629396,120.86525525367,NP100-3,合作場所,,
292577419,合作社,有限責任苗栗縣南庄國民中學員生消費合作社,,苗栗縣南庄鄉中正路165號,24.604560959349,121.00059736919,NP100-3,合作場所,,
292577406,合作社,苗栗縣卓蘭鎮吉峰合作農場,,苗栗縣卓蘭鎮內灣里六鄰45號,24.297205784823,120.85980799471,NP100-3,合作場所,,
292577405,合作社,有限責任苗栗縣內灣國民小學員生消費合作社,,苗栗縣卓蘭鎮內灣里120號,24.299094659652,120.8494845858,NP100-3,合作場所,,
292577407,合作社,保証責任苗栗縣卓蘭鎮東盛社區合作社,04-25891164,苗栗縣卓蘭鎮內灣里東盛18-2號,24.297320858314,120.86004873913,NP100-3,合作場所,,
292577400,合作社,保證責任苗栗縣卓蘭鎮傑農合作農場,,苗栗縣卓蘭鎮上新里食水坑10鄰2之3號,24.308213390209,120.82978143623,NP100-3,合作場所,,
292577401,合作社,保証責任苗栗縣卓蘭鎮食水坑社區合作社,04-25893706,苗栗縣卓蘭鎮上新里食水坑32號,24.307963700739,120.84950535447,NP100-3,合作場所,,
292577402,合作社,有限責任苗栗縣卓蘭鎮公所員工社,,苗栗縣卓蘭鎮中山路127號,24.31296457721,120.82449361866,NP100-3,合作場所,,
292577397,合作社,有限責任行政院農業委員會苗栗區農業改良場員工消費合作社,037-222111,苗栗縣公館鄉館南村261號,24.495143617129,120.8270828332,NP100-3,合作場所,,
292577398,合作社,有限責任苗栗縣立鶴岡國民中學員生消費合作社,037-226204,苗栗縣公館鄉鶴岡村178號,24.528659454512,120.83061762594,NP100-3,合作場所,,
292577396,合作社,有限責任臺灣省政府農林廳蠶業改良場員工社,,苗栗縣公館鄉館南村120號,24.502351513013,120.82356005599,NP100-3,合作場所,,
292577399,合作社,有限責任苗栗縣卓蘭鎮大茂果菜生產合作社,,苗栗縣卓蘭鎮,,,,,,
292577404,合作社,保証責任苗栗縣卓蘭鎮中新社區社,,苗栗縣卓蘭鎮中街里中正路中新社區活,24.311148723687,120.82622535171,NP100-3,合作場所,,
292577408,合作社,保證責任苗栗縣卓蘭鎮仙水合作農場,04-25921109,苗栗縣卓蘭鎮坪林里100之8號,24.331511706189,120.87595591611,NP100-3,合作場所,,
292577420,合作社,有限責任苗栗縣南埔國民小學員生消費合作社,037-822324,苗栗縣南庄鄉南富村大南埔134號,24.635182572495,120.97306373361,NP100-3,合作場所,,
292577453,合作社,有限責任苗栗縣成功國民小學員生消費合作社,,苗栗縣後龍鎮水尾里12鄰104-1號,24.632680457387,120.76174716815,NP100-3,合作場所,,
292577515,合作社,有限責任苗栗縣竹南建築物公用合作社,,苗栗縣苑裡鎮苑南里世界路7號,24.439832930654,120.65663651702,NP100-3,合作場所,,
292577387,合作社,苗栗縣五穀國校員生社,,苗栗縣公館鄉五穀村260號,,,,,,
292577388,合作社,有限責任苗栗縣南河國民學校員生消費合作社,,苗栗縣公館鄉南河村14號,24.529688956169,120.85284389761,NP100-3,合作場所,,
292577386,合作社,苗栗縣龍騰國校員生社,,苗栗縣三義鄉龍騰村外庄49號,24.357582598412,120.77695252358,NP100-3,合作場所,,
292577389,合作社,苗栗縣公館鄉大坑社區合作社,,苗栗縣公館鄉大坑村6鄰156號,24.495922415009,120.84109908734,NP100-3,合作場所,,
292577383,合作社,有限責任臺灣省水利局鯉魚潭水庫臨時工程處員工消費社,,苗栗縣三義鄉鯉魚漳村三櫃106號,24.336425858501,120.77337601407,NP100-3,合作場所,,
292577384,合作社,有限責任苗栗縣公館鄉鶴岡國民小學員生消費合作社,037-323141,苗栗縣公館鄉鶴山村4鄰197號,24.534390320476,120.83201611218,NP100-3,合作場所,,
292577382,合作社,有限責任臺灣省水利局機械工程隊員工社,,苗栗縣三義鄉鯉魚村三櫃31之1號,24.342342421234,120.77201988306,NP100-3,合作場所,,
292577385,合作社,有限責任苗栗縣鯉魚國民小學員生消費合作社,037-881154,苗栗縣三義鄉鯉魚潭村上山下24號,24.343498941466,120.76589966589,NP100-3,合作場所,,
292577390,合作社,有限責任苗栗縣福基國民小學員生消費合作社,037-224020,苗栗縣公館鄉福基村275號,24.469018918842,120.8327988252,NP100-3,合作場所,,
292577379,合作社,有限責任苗栗縣建中國民小學員生消費合作社,,苗栗縣三義鄉廣盛村91號,24.414560685334,120.77265326488,NP100-3,合作場所,,
292577377,合作社,有限責任苗栗縣僑成國民小學員生消費合作社,,苗栗縣三義鄉勝興村20份220號,24.402183702727,120.76545323122,NP100-3,合作場所,,
292577378,合作社,有限責任苗栗縣三義國民中學員生消費合作社,,苗栗縣三義鄉廣盛村11鄰122號,24.409910278271,120.76589962954,NP100-3,合作場所,,
292577380,合作社,有限責任苗栗縣三義鄉公所員工消費合作社,037-872801,苗栗縣三義鄉廣盛村復興路30號,24.412813823071,120.77025181724,NP100-3,合作場所,,
292577375,合作社,苗栗縣卓蘭鎮民康合作農場,,苗栗縣卓蘭鎮中山路45號,24.310574323061,120.82800186501,NP100-3,合作場所,,
292577374,合作社,有限責任苗栗縣三灣鄉公所員工消費合作社,037-831001,苗栗縣三灣鄉親民路19號,24.653157594163,120.95653770073,NP100-3,合作場所,,
292577376,合作社,有限責任苗栗縣東山國民學校員生消費合作社,,苗栗縣三灣鄉頂寮村107號,24.652622392561,120.99707662208,NP100-3,合作場所,,
292577381,合作社,有限責任苗栗縣育英國民小學員生消費合作社,,苗栗縣三義鄉西湖村上湖63號,24.382639646465,120.75945248169,NP100-3,合作場所,,
292577391,合作社,有限責任苗栗縣福德國民小學員生消費合作社,222003,苗栗縣公館鄉福德村6鄰65號,24.466077516378,120.86132832055,NP100-3,合作場所,,
292577369,合作社,苗栗縣三灣鄉內灣聯合社區合作農場,,苗栗縣三灣鄉內灣村5鄰13號,24.675731414965,120.95765929,NP100-3,合作場所,,
292577370,合作社,有限責任苗栗縣大坪國民小學員生消費合作社,,苗栗縣三灣鄉大坪村4鄰大坪林42號,24.618046390085,120.91455788168,NP100-3,合作場所,,
292577371,合作社,有限責任苗栗縣原山林業生產合作社,0972055846,苗栗縣三灣鄉大河村3鄰19之1號,24.611147337768,120.95832349294,NP100-3,合作場所,,
292577372,合作社,有限責任苗栗縣大河國民小學員生消費合作社,,苗栗縣三灣鄉大河村64號,24.617582772188,120.94594252075,NP100-3,合作場所,,
292577373,合作社,有限責任苗栗縣立三灣國民中學員生消費合作社,037-831002,苗栗縣三灣鄉忠信路17號,24.649621033071,120.95358657321,NP100-3,合作場所,,
292577392,合作社,有限責任苗栗縣開礦國民小學員生消費合作社,,苗栗縣公館鄉開礦村九鄰143號,24.464534534843,120.87367241976,NP100-3,合作場所,,
292577394,合作社,有限責任苗栗縣公館國民中學員生消費合作社,,苗栗縣公館鄉館中村79號,24.502555187724,120.82729224797,NP100-3,合作場所,,
292577395,合作社,有限責任苗栗縣公館鄉公所員工消費社,,苗栗縣公館鄉館中村宮前路6-1號,24.499836009539,120.82648931287,NP100-3,合作場所,,
292577516,合作社,有限責任苗栗縣蕉埔國民小學員生消費合作社,037-741574,苗栗縣苑裡鎮蕉埔里8鄰87之2號,24.413178622708,120.7134515632,NP100-3,合作場所,,
292577517,合作社,有限責任苗栗縣大福國民小學員生消費合作社,,苗栗縣苗栗市,,,,,,
292577414,合作社,有限責任苗栗縣景山國民小學員生消費合作社,,苗栗縣卓蘭鎮景山里5鄰88號,24.352630629396,120.86525525367,NP100-3,合作場所,,
292571136,合作社,有限責任苗栗縣德安建築勞動合作社,,,,,,,,
292577408,合作社,保證責任苗栗縣卓蘭鎮仙水合作農場,04-25921109,苗栗縣卓蘭鎮坪林里100之8號,24.331511706189,120.87595591611,NP100-3,合作場所,,
292577413,合作社,苗栗縣卓蘭鎮大統合作農場,,苗栗縣卓蘭鎮新厝里五鄰41號,24.311669556216,120.82554214794,NP100-3,合作場所,,
292577372,合作社,有限責任苗栗縣大河國民小學員生消費合作社,,苗栗縣三灣鄉大河村64號,24.617582772188,120.94594252075,NP100-3,合作場所,,
292577411,合作社,有限責任苗栗縣卓蘭國民中學員生消費合作社,,苗栗縣卓蘭鎮志庄村167號,,,,,,
292577371,合作社,有限責任苗栗縣原山林業生產合作社,0972055846,苗栗縣三灣鄉大河村3鄰19之1號,24.611147337768,120.95832349294,NP100-3,合作場所,,
292577492,合作社,苗栗縣福興國校員生社,,苗栗縣竹南鎮福興里58-2號,,,,,,
292577439,合作社,有限責任苗栗縣立大湖國民中學員生消費合作社,037-991054,苗栗縣大湖鄉民族路80號,24.426857080439,120.87098254344,NP100-3,合作場所,,
292577369,合作社,苗栗縣三灣鄉內灣聯合社區合作農場,,苗栗縣三灣鄉內灣村5鄰13號,24.675731414965,120.95765929,NP100-3,合作場所,,
292577436,合作社,有限責任苗栗縣華興國民小學員生消費合作社,037-991326,苗栗縣大湖鄉富興村水尾2號,24.443920675104,120.87436700517,NP100-3,合作場所,,
292577421,合作社,有限責任苗栗縣南庄國民小學員生消費合作社,,苗栗縣南庄鄉東村195號,24.605542212663,121.00113667929,NP100-3,合作場所,,
292577412,合作社,有限責任苗栗縣卓蘭國民小學員生消費合作社,04-25892008,苗栗縣卓蘭鎮新厝里中山路125號,24.312206550246,120.82478275497,NP100-3,合作場所,,
292577370,合作社,有限責任苗栗縣大坪國民小學員生消費合作社,,苗栗縣三灣鄉大坪村4鄰大坪林42號,24.618046390085,120.91455788168,NP100-3,合作場所,,
292577409,合作社,有限責任苗栗縣評林國民小學員生消費合作社,04-25921334,苗栗縣卓蘭鎮坪林里86-2號,24.335815652007,120.87630205481,NP100-3,合作場所,,
292577410,合作社,有限責任苗栗縣雙連國民小學員生消費合作社,,苗栗縣卓蘭鎮坪林里雙連16-1號,24.33776436878,120.84856215579,NP100-3,合作場所,,
292577376,合作社,有限責任苗栗縣東山國民學校員生消費合作社,,苗栗縣三灣鄉頂寮村107號,24.652622392561,120.99707662208,NP100-3,合作場所,,
292577379,合作社,有限責任苗栗縣建中國民小學員生消費合作社,,苗栗縣三義鄉廣盛村91號,24.414560685334,120.77265326488,NP100-3,合作場所,,
292577375,合作社,苗栗縣卓蘭鎮民康合作農場,,苗栗縣卓蘭鎮中山路45號,24.310574323061,120.82800186501,NP100-3,合作場所,,
292577374,合作社,有限責任苗栗縣三灣鄉公所員工消費合作社,037-831001,苗栗縣三灣鄉親民路19號,24.653157594163,120.95653770073,NP100-3,合作場所,,
292577373,合作社,有限責任苗栗縣立三灣國民中學員生消費合作社,037-831002,苗栗縣三灣鄉忠信路17號,24.649621033071,120.95358657321,NP100-3,合作場所,,
292577394,合作社,有限責任苗栗縣公館國民中學員生消費合作社,,苗栗縣公館鄉館中村79號,24.502555187724,120.82729224797,NP100-3,合作場所,,
292577390,合作社,有限責任苗栗縣福基國民小學員生消費合作社,037-224020,苗栗縣公館鄉福基村275號,24.469018918842,120.8327988252,NP100-3,合作場所,,
292577431,合作社,有限責任苗栗縣大南國民小學員生消費合作社,,苗栗縣大湖鄉大南村63號,24.417762199841,120.89917326265,NP100-3,合作場所,,
292577381,合作社,有限責任苗栗縣育英國民小學員生消費合作社,,苗栗縣三義鄉西湖村上湖63號,24.382639646465,120.75945248169,NP100-3,合作場所,,
292577382,合作社,有限責任臺灣省水利局機械工程隊員工社,,苗栗縣三義鄉鯉魚村三櫃31之1號,24.342342421234,120.77201988306,NP100-3,合作場所,,
292577388,合作社,有限責任苗栗縣南河國民學校員生消費合作社,,苗栗縣公館鄉南河村14號,24.529688956169,120.85284389761,NP100-3,合作場所,,
292577385,合作社,有限責任苗栗縣鯉魚國民小學員生消費合作社,037-881154,苗栗縣三義鄉鯉魚潭村上山下24號,24.343498941466,120.76589966589,NP100-3,合作場所,,
292577384,合作社,有限責任苗栗縣公館鄉鶴岡國民小學員生消費合作社,037-323141,苗栗縣公館鄉鶴山村4鄰197號,24.534390320476,120.83201611218,NP100-3,合作場所,,
292577383,合作社,有限責任臺灣省水利局鯉魚潭水庫臨時工程處員工消費社,,苗栗縣三義鄉鯉魚漳村三櫃106號,24.336425858501,120.77337601407,NP100-3,合作場所,,
292577392,合作社,有限責任苗栗縣開礦國民小學員生消費合作社,,苗栗縣公館鄉開礦村九鄰143號,24.464534534843,120.87367241976,NP100-3,合作場所,,
292577422,合作社,有限責任苗栗縣南庄鄉公所員工社,,苗栗縣南庄鄉東村大同路1號,24.596979150548,121.00071928832,NP100-3,合作場所,,
292577391,合作社,有限責任苗栗縣福德國民小學員生消費合作社,222003,苗栗縣公館鄉福德村6鄰65號,24.466077516378,120.86132832055,NP100-3,合作場所,,
292577398,合作社,有限責任苗栗縣立鶴岡國民中學員生消費合作社,037-226204,苗栗縣公館鄉鶴岡村178號,24.528659454512,120.83061762594,NP100-3,合作場所,,
292577395,合作社,有限責任苗栗縣公館鄉公所員工消費社,,苗栗縣公館鄉館中村宮前路6-1號,24.499836009539,120.82648931287,NP100-3,合作場所,,
292577397,合作社,有限責任行政院農業委員會苗栗區農業改良場員工消費合作社,037-222111,苗栗縣公館鄉館南村261號,24.495143617129,120.8270828332,NP100-3,合作場所,,
292577396,合作社,有限責任臺灣省政府農林廳蠶業改良場員工社,,苗栗縣公館鄉館南村120號,24.502351513013,120.82356005599,NP100-3,合作場所,,
292577407,合作社,保証責任苗栗縣卓蘭鎮東盛社區合作社,04-25891164,苗栗縣卓蘭鎮內灣里東盛18-2號,24.297320858314,120.86004873913,NP100-3,合作場所,,
292577402,合作社,有限責任苗栗縣卓蘭鎮公所員工社,,苗栗縣卓蘭鎮中山路127號,24.31296457721,120.82449361866,NP100-3,合作場所,,
292577401,合作社,保証責任苗栗縣卓蘭鎮食水坑社區合作社,04-25893706,苗栗縣卓蘭鎮上新里食水坑32號,24.307963700739,120.84950535447,NP100-3,合作場所,,
292577406,合作社,苗栗縣卓蘭鎮吉峰合作農場,,苗栗縣卓蘭鎮內灣里六鄰45號,24.297205784823,120.85980799471,NP100-3,合作場所,,
292577404,合作社,保証責任苗栗縣卓蘭鎮中新社區社,,苗栗縣卓蘭鎮中街里中正路中新社區活,24.311148723687,120.82622535171,NP100-3,合作場所,,
292577451,合作社,有限責任苗栗縣後龍鎮後龍國民小學員生消費合作社,037-722049,苗栗縣後龍鎮大庄里成功路254號,24.613833458607,120.7961372883,NP100-3,合作場所,,
292577415,合作社,有限責任國立卓蘭實驗高級中學員生消費合作社,04-25892007,苗栗縣卓蘭鎮老庄村161號,24.312248579553,120.82901926414,NP100-3,合作場所,,
292577405,合作社,有限責任苗栗縣內灣國民小學員生消費合作社,,苗栗縣卓蘭鎮內灣里120號,24.299094659652,120.8494845858,NP100-3,合作場所,,
292577400,合作社,保證責任苗栗縣卓蘭鎮傑農合作農場,,苗栗縣卓蘭鎮上新里食水坑10鄰2之3號,24.308213390209,120.82978143623,NP100-3,合作場所,,
292577399,合作社,有限責任苗栗縣卓蘭鎮大茂果菜生產合作社,,苗栗縣卓蘭鎮,,,,,,
292577389,合作社,苗栗縣公館鄉大坑社區合作社,,苗栗縣公館鄉大坑村6鄰156號,24.495922415009,120.84109908734,NP100-3,合作場所,,
292577387,合作社,苗栗縣五穀國校員生社,,苗栗縣公館鄉五穀村260號,,,,,,
292577386,合作社,苗栗縣龍騰國校員生社,,苗栗縣三義鄉龍騰村外庄49號,24.357582598412,120.77695252358,NP100-3,合作場所,,
292577380,合作社,有限責任苗栗縣三義鄉公所員工消費合作社,037-872801,苗栗縣三義鄉廣盛村復興路30號,24.412813823071,120.77025181724,NP100-3,合作場所,,
292577425,合作社,有限責任苗栗縣立南湖國民中學員生消費合作社,991209,苗栗縣大湖鄉義和村12號,24.397709574648,120.85514270992,NP100-3,合作場所,,
292577418,合作社,保証責任苗栗縣卓蘭鎮豐田社區合作社,04-25891911,苗栗縣卓蘭鎮豐田里9鄰115之2號,24.325621854293,120.81941531165,NP100-3,合作場所,,
292577417,合作社,有限責任苗栗縣豐田國民小學員生消費合作社,04-25892164,苗栗縣卓蘭鎮豐田國小員生消費合作社,,,,,,
292577378,合作社,有限責任苗栗縣三義國民中學員生消費合作社,,苗栗縣三義鄉廣盛村11鄰122號,24.409910278271,120.76589962954,NP100-3,合作場所,,
292577416,合作社,保證責任苗栗縣卓蘭鎮花卉生產合作社,,苗栗縣卓蘭鎮西坪里四鄰西坪43之2號,24.334180447399,120.82593596266,NP100-3,合作場所,,
292577420,合作社,有限責任苗栗縣南埔國民小學員生消費合作社,037-822324,苗栗縣南庄鄉南富村大南埔134號,24.635182572495,120.97306373361,NP100-3,合作場所,,
292577419,合作社,有限責任苗栗縣南庄國民中學員生消費合作社,,苗栗縣南庄鄉中正路165號,24.604560959349,121.00059736919,NP100-3,合作場所,,
292577423,合作社,有限責任苗栗縣東河國民小學員生消費合作社,,苗栗縣南庄鄉東河村3鄰132號,24.600582479498,121.04039752792,NP100-3,合作場所,,
292577424,合作社,有限責任苗栗縣南庄鄉東河消費合作社,,苗栗縣南庄鄉東河村89號,24.604107849813,121.04218444028,NP100-3,合作場所,,
292577429,合作社,有限責任苗栗縣原住民景觀綠化園藝勞動合作社,,苗栗縣南庄鄉蓬萊村八卦力11鄰18號,24.529474825903,120.96076164365,NP100-3,合作場所,,
292577450,合作社,有限責任苗栗縣立維真國民中學員生消費合作社,037-722537,苗栗縣後龍鎮大庄里中山路252號,24.612202411659,120.79468212665,NP100-3,合作場所,,
292577428,合作社,苗栗縣南莊鄉蓬萊社區合作社,,苗栗縣南庄鄉蓬萊村七鄰紅毛館九五號,24.560980396295,120.98245631515,NP100-3,合作場所,,
292577427,合作社,有限責任苗栗縣蓬萊國民小學員生消費合作社,823385,苗栗縣南庄鄉蓬萊村19鄰118號,24.54280246914,120.97081876518,NP100-3,合作場所,,
292577426,合作社,有限責任苗栗縣田美國民小學員生消費合作社,037-822445,苗栗縣南庄鄉田美村9鄰191號,24.629340205731,121.00848235853,NP100-3,合作場所,,
292577435,合作社,保證責任苗栗縣欣欣合作農場,,苗栗縣大湖鄉富興村八寮灣28之2號,24.437756976482,120.87164999125,NP100-3,合作場所,,
292577430,合作社,有限責任苗栗縣大湖鄉公所員工消費合作社,991111*128,苗栗縣大湖鄉中正路80號,24.423385565728,120.86617423539,NP100-3,合作場所,,
292577434,合作社,有限責任苗栗縣大湖國民小學員生消費合作社,992508,苗栗縣大湖鄉大湖村中正路育英巷11號,24.42136766762,120.86980527721,NP100-3,合作場所,,
292577433,合作社,有限責任苗栗縣大湖地政事務所員工社,,苗栗縣大湖鄉大湖村中正路48號,24.422470170385,120.86737196383,NP100-3,合作場所,,
292577432,合作社,有限責任苗栗縣大湖高級農工職業學校員生消費合作社,,苗栗縣大湖鄉大寮村竹篙屋68號,24.421354942673,120.86157061631,NP100-3,合作場所,,
292577449,合作社,保證責任苗栗縣後龍鎮外埔聯合社區合作農場,,苗栗縣後龍鎮外埔里14鄰109號,24.651668674177,120.7751118211,NP100-3,合作場所,,
292577440,合作社,有限責任苗栗縣南湖國民小學員生消費合作社,,苗栗縣大湖鄉義和村106號,24.386768896457,120.86582301474,NP100-3,合作場所,,
292577446,合作社,保證責任苗栗縣後龍鎮南龍社區合作農場,,苗栗縣後龍鎮南龍里勝利街20鄰23b-1號,24.613245431547,120.78335663777,NP100-3,合作場所,,
292577441,合作社,有限責任苗栗縣武榮國民小學員生消費合作社,037-992816,苗栗縣大湖鄉義和村淋漓坪7鄰77號,24.382739095303,120.86764738428,NP100-3,合作場所,,
292577445,合作社,有限責任苗栗縣後龍鎮公所員工消費合作社,752381,苗栗縣後龍鎮中山路152號,24.613738885731,120.7920166046,NP100-3,合作場所,,
292577444,合作社,有限責任苗栗縣後龍鎮中和國民小學員生消費合作社,037-921451,苗栗縣後龍鎮中和里14鄰152號,24.588097298369,120.73473170337,NP100-3,合作場所,,
292577447,合作社,有限責任苗栗縣立後龍國民中學員生消費合作社,037-722028,苗栗縣後龍鎮南龍里勝利街250號,24.616630606995,120.78461834372,NP100-3,合作場所,,
292577448,合作社,有限責任苗栗縣新港國民小學員生消費合作社,037-722547,苗栗縣後龍鎮埔頂里頂東路30號,24.612827867889,120.81942166415,NP100-3,合作場所,,
292577510,合作社,苗栗縣舊社社區合作農場,,苗栗縣苑裡鎮舊社里1鄰11號,24.410268408228,120.6836227134,NP100-3,合作場所,,
292577447,合作社,有限責任苗栗縣立後龍國民中學員生消費合作社,037-722028,苗栗縣後龍鎮南龍里勝利街250號,24.616630606995,120.78461834372,NP100-3,合作場所,,
292577445,合作社,有限責任苗栗縣後龍鎮公所員工消費合作社,752381,苗栗縣後龍鎮中山路152號,24.613738885731,120.7920166046,NP100-3,合作場所,,
292577510,合作社,苗栗縣舊社社區合作農場,,苗栗縣苑裡鎮舊社里1鄰11號,24.410268408228,120.6836227134,NP100-3,合作場所,,
292577459,合作社,有限責任苗栗縣大山國民小學員生消費合作社,037-432784,苗栗縣後龍鎮灣寶里7鄰109號,24.645664421355,120.80952798024,NP100-3,合作場所,,
292577460,合作社,有限責任苗栗縣富田國民小學員生消費合作社,,苗栗縣後龍鎮豐富里55號,24.600509908396,120.82835700437,NP100-3,合作場所,,
292577451,合作社,有限責任苗栗縣後龍鎮後龍國民小學員生消費合作社,037-722049,苗栗縣後龍鎮大庄里成功路254號,24.613833458607,120.7961372883,NP100-3,合作場所,,
292577450,合作社,有限責任苗栗縣立維真國民中學員生消費合作社,037-722537,苗栗縣後龍鎮大庄里中山路252號,24.612202411659,120.79468212665,NP100-3,合作場所,,
292577458,合作社,有限責任苗栗縣私立仁德醫護管理專科學校員生消費合作社,,苗栗縣後龍鎮溪洲里砂崙湖79-9號,24.623564206681,120.78293874234,NP100-3,合作場所,,
292577454,合作社,有限責任苗栗縣獅潭國民小學員生消費合作社,,苗栗縣獅潭鄉新店村129號,24.540084812956,120.92056854752,NP100-3,合作場所,,
292577452,合作社,苗栗縣後龍鎮水秀果菜生產合作社,,苗栗縣後龍鎮水尾里10鄰90號,24.633831802045,120.76323059815,NP100-3,合作場所,,
292577453,合作社,有限責任苗栗縣成功國民小學員生消費合作社,,苗栗縣後龍鎮水尾里12鄰104-1號,24.632680457387,120.76174716815,NP100-3,合作場所,,
292577457,合作社,有限責任苗栗縣溪洲國民小學員生消費合作社,037-723853,苗栗縣後龍鎮溪洲里7鄰87-3號,24.620955836219,120.77674065139,NP100-3,合作場所,,
292577455,合作社,有限責任苗栗縣外埔國民小學員生消費合作社,037-431809,苗栗縣後龍鎮海埔里3鄰8號,24.649207979212,120.77493287522,NP100-3,合作場所,,
292577456,合作社,有限責任苗栗縣海寶國民小學員生消費合作社,,苗栗縣後龍鎮海寶里5鄰52-2號,24.661823472859,120.82173852011,NP100-3,合作場所,,
292577463,合作社,保證責任苗栗縣泰安鄉馥園合作農場,,苗栗縣泰安鄉中興村6鄰司馬陸38號,24.408734034971,120.94184781853,NP100-3,合作場所,,
292577461,合作社,有限責任苗栗縣龍坑國民小學員生消費合作社,037-722027,苗栗縣後龍鎮龍坑里158號,24.601926014212,120.77815390146,NP100-3,合作場所,,
292577462,合作社,有限責任苗栗縣同光國民小學員生消費合作社,037-450738,苗栗縣後龍鎮龍津里94號,24.610127113929,120.76176482158,NP100-3,合作場所,,
292577488,合作社,有限責任苗栗縣竹南地政事務所員工消費合作社,037-468860,苗栗縣竹南鎮正南里中正路96號,24.683936916001,120.87531138969,NP100-3,合作場所,,
292577464,合作社,有限責任苗栗縣泰安鄉原住民建築勞動合作社,,苗栗縣泰安鄉士林村六鄰馬那邦42-2號,24.345062367209,120.93015497087,NP100-3,合作場所,,
292577467,合作社,有限責任苗栗縣獅潭國民中學員生消費合作社,,苗栗縣獅潭鄉新店村21號,24.542718375334,120.94687227823,NP100-3,合作場所,,
292577465,合作社,有限責任苗栗縣泰安國中員生消費合作社,,苗栗縣泰安鄉大興村1鄰14號,24.418831203841,120.9098468354,NP100-3,合作場所,,
292577466,合作社,有限責任苗栗縣泰安鄉公所員工消費社,,苗栗縣泰安鄉清安村洗水坑69號,24.447243797748,120.90812247156,NP100-3,合作場所,,
292577474,合作社,有限責任苗栗縣立照南國民中學員生消費合作社,472750,苗栗縣竹南鎮公教路2號,24.693630736542,120.87697533578,NP100-3,合作場所,,
292577470,合作社,有限責任苗栗縣永興國民學校員生消費合作社,,苗栗縣獅潭鄉百壽村2號,24.593482965214,120.94990292488,NP100-3,合作場所,,
292577468,合作社,有限責任苗栗縣獅潭鄉公所員工消費社,,苗栗縣獅潭鄉新店村98號,24.540946512199,120.9215616696,NP100-3,合作場所,,
292577469,合作社,有限責任苗栗縣豐林國民小學員生消費合作社,,苗栗縣獅潭鄉新豊村42號,,,,,,
292577473,合作社,有限責任國立竹南高級中學員生消費合作社,460801,苗栗縣竹南鎮中正路98號,24.683863100383,120.87479469826,NP100-3,合作場所,,
292577471,合作社,有限責任苗栗縣竹南國民小學員生消費合作社,462020,苗栗縣竹南鎮中正路146號,24.683658307335,120.86980142817,NP100-3,合作場所,,
292577444,合作社,有限責任苗栗縣後龍鎮中和國民小學員生消費合作社,037-921451,苗栗縣後龍鎮中和里14鄰152號,24.588097298369,120.73473170337,NP100-3,合作場所,,
292577487,合作社,有限責任苗栗縣新南國民小學員生消費合作社,037-613843,苗栗縣竹南鎮新南里五谷二號,24.687652094802,120.88496144493,NP100-3,合作場所,,
292577476,合作社,苗栗縣私立君毅中學員生消費合作社,,苗栗縣竹南鎮公義路245號,24.701187487368,120.88315276445,NP100-3,合作場所,,
292577478,合作社,有限責任苗栗縣竹南鎮消費合作社,,苗栗縣竹南鎮博愛街323號,24.68819548053,120.86809719748,NP100-3,合作場所,,
292577486,合作社,有限責任台灣菸酒股份有限公司竹南啤酒廠員工消費合作社,037-583001,苗栗縣竹南鎮崎頂里和興路345號,24.711989960367,120.8767886907,NP100-3,合作場所,,
292577482,合作社,有限責任苗栗縣村耕農業生產合作社,037-480490,苗栗縣竹南鎮山佳里10鄰華興街100巷1號,24.701974992003,120.88343226669,NP100-3,合作場所,,
292577480,合作社,保證責任苗栗縣竹南鎮手工業生產合作社,037-584758,苗栗縣竹南鎮大埔里和興路18號,24.706313528172,120.88557592268,NP100-3,合作場所,,
292577481,合作社,有限責任苗栗縣中興高級商工職業學校員生消費合作社,,苗栗縣竹南鎮大營路211號,24.688032522967,120.87256372115,NP100-3,合作場所,,
292577485,合作社,有限責任台灣省家畜衛生試驗所動物用藥品檢定分所員工消費合作社,,苗栗縣竹南鎮岐頂里牧場21號,24.713547829099,120.87253058367,NP100-3,合作場所,,
292577483,合作社,有限責任苗栗縣照南國民小學員生消費合作社,,苗栗縣竹南鎮山佳里14鄰,24.701150643635,120.88245070403,NP100-3,合作場所,,
292577484,合作社,苗栗縣苑裡鎮中正社區合作農場,,苗栗縣苑裡鎮中正里14鄰113號,24.429202635259,120.6602524891,NP100-3,合作場所,,
292577509,合作社,有限責任苗栗縣中山國民小學員生消費合作社,,苗栗縣苑裡鎮社苓里四鄰51之1號,24.398542772423,120.67605098061,NP100-3,合作場所,,
292577489,合作社,有限責任苗栗縣鹿產品運銷合作社,860177,苗栗縣苑裡鎮客庄里8鄰客庄115號,24.43528867015,120.65715899275,NP100-3,合作場所,,
292577492,合作社,苗栗縣福興國校員生社,,苗栗縣竹南鎮福興里58-2號,,,,,,
292577491,合作社,苗栗縣竹南鎮塭內社區合作農,,苗栗縣竹南鎮港墘里塭內10鄰8-1號,24.671614090192,120.85210751821,NP100-3,合作場所,,
292577490,合作社,有限責任苗栗縣海口國民小學員生消費合作社,037-461354,苗栗縣竹南鎮海口里7鄰93號,24.676148431987,120.8604200919,NP100-3,合作場所,,
292577495,合作社,有限責任苗栗縣製糖勞動合作社,,苗栗縣竹南鎮頂埔里台糖1號,24.709856675074,120.92104502654,NP100-3,合作場所,,
292577508,合作社,有限責任苗栗縣猶盂國民學校員生消費合作社,,苗栗縣苑裡鎮猶盂里82號,,,,,,
292577494,合作社,有限責任苗栗縣頂埔國民小學員生消費合作社,,苗栗縣竹南鎮頂埔里2鄰110號,24.708157761111,120.92406130345,NP100-3,合作場所,,
292577493,合作社,有限責任苗栗縣竹興國民小學員生消費合作社,037-465037,苗栗縣竹南鎮竹圍街27號,24.687662802939,120.86486880698,NP100-3,合作場所,,
292577507,合作社,有限責任苗栗縣林森國民小學員生消費合作社,,"苗栗縣苑裡鎮水坡里 70 號",24.438315385775,120.67932188775,NP100-3,合作場所,,
292577501,合作社,有限責任苗栗縣苑裡國民中學員生消費合作社,,苗栗縣苑裡鎮客庄里1鄰2號,24.438023439585,120.66424332738,NP100-3,合作場所,,
292577498,合作社,有限責任苗栗縣中正國民小學員生消費合作社,037-861244,苗栗縣苑裡鎮中正里111號,24.429165556775,120.66115197433,NP100-3,合作場所,,
292577500,合作社,有限責任苗栗縣文苑國民小學員生消費合作社,037-861410,苗栗縣苑裡鎮南房裡里2鄰14號,,,,,,
292577503,合作社,有限責任國立苑裡高級中學員生消費合作社,037-861042,苗栗縣苑裡鎮客庄里1鄰2號,24.438023439585,120.66424332738,NP100-3,合作場所,,
292577502,合作社,有限責任苗栗縣立苑裡高級中學員生消費合作社,037-861042,苗栗縣苑裡鎮客庄里1鄰2號,24.438023439585,120.66424332738,NP100-3,合作場所,,
292577506,合作社,有限責任苗栗縣客庄國民小學員生消費合作社,037-865646,苗栗縣苑裡鎮新興路21號,24.439576685074,120.65480988815,NP100-3,合作場所,,
292577504,合作社,有限責任苗栗縣苑裡鎮公所員工社,,苗栗縣苑裡鎮客庄里信義路1號,24.439656674163,120.65322762689,NP100-3,合作場所,,
292577505,合作社,苗栗縣苑裡鎮山柑社區合作農場,,苗栗縣苑裡鎮山柑里八鄰82號,24.402116298148,120.67161875321,NP100-3,合作場所,,
292577521,合作社,有限責任苗栗縣建功國民小學員生消費合作社,037-320043,苗栗縣苗栗市中正路241號,24.564225029359,120.82431032749,NP100-3,合作場所,,
292577513,合作社,苗栗縣第一消費合作社,,苗栗縣苗栗市大同里福星山18號,24.556881993415,120.81122067189,NP100-3,合作場所,,
292577537,合作社,有限責任苗栗縣立文華國民小學員生消費合作社,,苗栗縣苗栗市文山里25鄰正發路133號,24.569005619208,120.81798001206,NP100-3,合作場所,,
292577512,合作社,有限責任苗栗縣山腳國民小學員生消費合作社,037-745024,苗栗縣苑裡鎮舊社里47號,24.416992234503,120.68510577497,NP100-3,合作場所,,
292577511,合作社,保證責任苗栗縣通苑漁業生產合作社,,苗栗縣苑裡鎮舊社里3鄰24之14號,24.411732790457,120.68064054893,NP100-3,合作場所,,
292577520,合作社,有限責任行政院農委會北區糧食管理處苗栗辦事處員工消費合作社,037-353211,苗栗縣苗栗市中正路184號,24.565681277981,120.82398428471,NP100-3,合作場所,,
292577516,合作社,有限責任苗栗縣蕉埔國民小學員生消費合作社,037-741574,苗栗縣苑裡鎮蕉埔里8鄰87之2號,24.413178622708,120.7134515632,NP100-3,合作場所,,
292577515,合作社,有限責任苗栗縣竹南建築物公用合作社,,苗栗縣苑裡鎮苑南里世界路7號,24.439832930654,120.65663651702,NP100-3,合作場所,,
292577519,合作社,有限責任苗栗縣新有機農業產銷合作社,0937079196,苗栗縣苗栗市建功里長春街15號,24.562215709453,120.82082388482,NP100-3,合作場所,,
292577517,合作社,有限責任苗栗縣大福國民小學員生消費合作社,,苗栗縣苗栗市,,,,,,
292577518,合作社,有限責任台灣苗栗地方法院暨檢察署員工消費合作社,,苗栗縣苗栗市中正路1149號,24.546053449872,120.81672004658,NP100-3,合作場所,,
292577536,合作社,有限責任苗栗縣苗栗市公所員工消費合作社,,苗栗縣苗栗市建功里府前路76號,24.563453767488,120.82001302519,NP100-3,合作場所,,
292577528,合作社,有限責任苗栗縣新英國民小學員生消費合作社,,苗栗縣苗栗市南勢里新勝8號,24.52616967247,120.79894712989,NP100-3,合作場所,,
292577524,合作社,有限責任臺灣土地銀行苗栗分行員工消費合作社,,苗栗縣苗栗市中苗里中正路402號,24.560842128197,120.82218909729,NP100-3,合作場所,,
292577522,合作社,有限責任苗栗縣稅捐稽征處員工消費合作社,,苗栗縣苗栗市中正路386號,24.561388824368,120.82249317627,NP100-3,合作場所,,
292577523,合作社,苗栗縣中國石油公司臺灣油礦探勘總處員工社,,苗栗縣苗栗市中正路90號,24.568183749971,120.82424073589,NP100-3,合作場所,,
292577527,合作社,有限責任苗栗縣政府國際文化觀光局員工消費合作社,037-352961,苗栗縣苗栗市北苗里自治路50號,24.565967886999,120.82041519266,NP100-3,合作場所,,
292577525,合作社,有限責任苗栗縣僑育國民小學員生消費合作社,,苗栗縣苗栗市僑育街131號,24.552566812485,120.82159614328,NP100-3,合作場所,,
292577526,合作社,有限責任苗栗縣衛生局員工消費合作社,336769,苗栗縣苗栗市勝利里國福路6號,24.541470960073,120.82071085272,NP100-3,合作場所,,
292577535,合作社,有限責任苗栗地政事務所員工消費合作社,037-331201,苗栗縣苗栗市建功里34鄰大埔街38號,24.561952170328,120.81827915501,NP100-3,合作場所,,
292577531,合作社,有限責任苗栗縣大同國民小學員生消費合作社,,苗栗縣苗栗市大同路八十號,24.552754548394,120.81502457874,NP100-3,合作場所,,
292577529,合作社,有限責任臺灣省苗栗農田水利會員工消費社,,苗栗縣苗栗市卜苗里建民街60號,24.565902905442,120.82395731962,NP100-3,合作場所,,
292577530,合作社,有限責任行政院衛生署苗栗醫院員工消費合作社,037-261920,苗栗縣苗栗市嘉盛里為公路747號,24.575655074208,120.84040480172,NP100-3,合作場所,,
292577534,合作社,有限責任中華民國退伍軍人協會臺灣省苗栗縣分會消費合作社,,苗栗縣苗栗市府東路107號,24.562612418209,120.82111843012,NP100-3,合作場所,,
292577532,合作社,有限責任苗栗縣機關學校員工消費合作社聯合社,037-322443,苗栗縣苗栗市府前路46號,24.562578366792,120.81966845264,NP100-3,合作場所,,
292577533,合作社,有限責任苗栗縣勞工消費合作社,,苗栗縣苗栗市府前路92號,24.561015708168,120.81866512023,NP100-3,合作場所,,
292577549,合作社,有限責任苗栗縣私立建臺高級中學員生消費合作社,037-353270,苗栗縣苗栗市福麗里至公路251號,24.560122767416,120.81487553221,NP100-3,合作場所,,
292577542,合作社,有限責任台電公司苗栗營業處員工社,,苗栗縣苗栗市為公路236號,24.57115863129,120.82938824211,NP100-3,合作場所,,
292577538,合作社,有限責任苗栗縣文山國民小學員生消費合作社,037-320406,苗栗縣苗栗市文山里41號,24.568071876533,120.81488639654,NP100-3,合作場所,,
292577541,合作社,保証責任苗栗縣養豬生產合作社,,苗栗縣苗栗市民族路119號,24.563620543629,120.81657891857,NP100-3,合作場所,,
292577539,合作社,有限責任苗栗縣文華國民小學員生消費合作社,,苗栗縣苗栗市文山里正發路133號,24.569005619208,120.81798001206,NP100-3,合作場所,,
292577540,合作社,有限責任法務部矯正署苗栗看守所消費合作社,,苗栗縣苗栗市新英里南勢100號,24.557680930139,120.80184226112,NP100-3,合作場所,,
292577566,合作社,有限責任苗栗縣西湖國民中學員生消費合作社,037-921016,苗栗縣西湖鄉龍洞村1鄰1-1號,24.555981253523,120.75738599477,NP100-3,合作場所,,
292577543,合作社,有限責任國立苗栗高級農工職業學校員生消費合作社,037369606,苗栗縣苗栗市玉維路286號,24.559795212644,120.82502178376,NP100-3,合作場所,,
292577544,合作社,有限責任中國石油公司營總處苗栗營業處員工社,,苗栗縣苗栗市福星街25號,24.571331640086,120.82538258529,NP100-3,合作場所,,
292577548,合作社,有限責任苗栗縣啟文國民小學員生消費合作社,,苗栗縣苗栗市福星里啟賢街61號,24.572949339518,120.82725937176,NP100-3,合作場所,,
292577545,合作社,有限責任台肥公司苗栗員工社,,苗栗縣苗栗市福星里210號,24.576467026756,120.82479225386,NP100-3,合作場所,,
292577547,合作社,有限責任苗栗縣福星國民小學員生消費合作社,264724,苗栗縣苗栗市福星里2鄰中華東街62號,24.579129206865,120.82597741664,NP100-3,合作場所,,
292577546,合作社,有限責任苗栗縣僑文國民小學員生消費合作社,,苗栗縣造橋鄉二湖村二鄰二十二號,,,,,,
292577564,合作社,有限責任苗栗縣文林國民中學員生消費合作社,,苗栗縣銅鑼鄉文化街12號,24.489808672683,120.78958701552,NP100-3,合作場所,,
292577550,合作社,有限責任苗栗縣立明仁國民中學員生消費合作社,034-321261,苗栗縣苗栗市福麗里電台十號,24.558687146892,120.81435347332,NP100-3,合作場所,,
292577552,合作社,有限責任苗栗縣政府員工消費合作社,037-354856,苗栗縣苗栗市縣府路100號,24.564984555001,120.82079697606,NP100-3,合作場所,,
292577565,合作社,保證責任苗栗縣西湖鄉湖東聯合社合作農場,,苗栗縣西湖鄉湖東村大窩19之1號,24.57148234888,120.75941000723,NP100-3,合作場所,,
292577556,合作社,苗栗縣立苗栗女子中學員生消費合作社,,苗栗縣苗栗市育英街82號,24.569798098522,120.83093526806,NP100-3,合作場所,,
292577555,合作社,有限責任苗栗縣大倫國民中學員生消費合作社,037-266311,苗栗縣苗栗市育英街82號,24.569798098522,120.83093526806,NP100-3,合作場所,,
292577559,合作社,有限責任國立苗栗高級商業職業學校員生消費合作社,037-356001,苗栗縣苗栗市苗栗鎮電台街7號,,,,,,
292577558,合作社,有限責任苗栗縣學校員生消費合作社聯合社,037320507,苗栗縣苗栗市苗栗鎮中正路191號,,,,,,
292577563,合作社,有限責任苗栗縣瑞湖國民小學員生消費合作社,037-921614,苗栗縣西湖鄉四湖村老屋16號,24.527415432125,120.75207018253,NP100-3,合作場所,,
292577562,合作社,苗栗縣西湖鄉四湖社社區合作農場,,苗栗縣西湖鄉四湖村3鄰19-1號,24.533938115311,120.74318452279,NP100-3,合作場所,,
292577560,合作社,有限責任苗栗縣立苗栗國民中學員生消費合作社,363581,苗栗縣苗栗市高苗里1鄰木鐸山1號,24.554310978926,120.81241887716,NP100-3,合作場所,,
292577561,合作社,有限責任苗栗縣五湖國民小學員生消費合作社,037-911244,苗栗縣西湖鄉五湖村上湖96號,24.522102888272,120.77662163422,NP100-3,合作場所,,
292577610,合作社,有限責任苗栗縣銅鑼地政事務所員工社,,苗栗縣銅鑼鄉銅鐲村郵電街9號,24.48775005737,120.78777079463,NP100-3,合作場所,,
292577573,合作社,有限責任苗栗縣五福國民小學員生消費合作社,037-754814,苗栗縣通霄鎮五北里30之1號,24.472452811738,120.66630137783,NP100-3,合作場所,,
292577568,合作社,有限責任苗栗縣西湖鄉公所員工消費合作社,037-921515,苗栗縣西湖鄉龍洞村1鄰5號,24.556770998363,120.75704350677,NP100-3,合作場所,,
292577570,合作社,有限責任苗栗縣通霄地政事務所員工消費合作社,,苗栗縣通霄鎮中正路85號,24.490537827808,120.67927505915,NP100-3,合作場所,,
292577571,合作社,有限責任苗栗縣通宵鎮機關聯合員工社,,苗栗縣通霄鎮中正路8號,24.491288265383,120.68422418574,NP100-3,合作場所,,
292577581,合作社,有限責任苗栗縣坪頂國民小學員生消費合作社,782214,苗栗縣通霄鎮坪頂里4鄰50號,24.446608541147,120.70563607918,NP100-3,合作場所,,
292577574,合作社,保證責任苗栗縣通霄鎮五里牌社區合作農場,037-864342,苗栗縣通霄鎮五南里九鄰88號,24.46165591426,120.65828960696,NP100-3,合作場所,,
292577576,合作社,有限責任苗栗縣啟明國民小學員生消費合作社,037-792537,苗栗縣通霄鎮內島里二鄰15號,24.559298146221,120.70896295454,NP100-3,合作場所,,
292577575,合作社,有限責任台鹽實業公司通宵精鹽廠員工消費合作社,,苗栗縣通霄鎮內島里122號,24.556360303055,120.70411950277,NP100-3,合作場所,,
292577580,合作社,有限責任苗栗縣圳頭國校,,苗栗縣通霄鎮圳頭里60號,24.483936436501,120.70757231229,NP100-3,合作場所,,
292577577,合作社,有限責任苗栗縣鳥眉國民中學員生消費合作社,,苗栗縣通霄鎮內湖里1號,24.506393446675,120.71667704243,NP100-3,合作場所,,
292577579,合作社,有限責任苗栗縣南和國民小學員生消費合作社,037-782304,苗栗縣通霄鎮南和里117號,24.448076778606,120.72104572993,NP100-3,合作場所,,
292577578,合作社,有限責任苗栗縣立南和國民中學員生消費合作社,037-782404,苗栗縣通霄鎮南和里112之1號,24.44747089268,120.72106723371,NP100-3,合作場所,,
292577609,合作社,有限責任苗栗縣興隆國民小學員生消費合作社,,苗栗縣銅鑼鄉興隆村117號,24.462869442273,120.81197019036,NP100-3,合作場所,,
292577593,合作社,有限責任苗栗縣錦水國民小學員生消費合作社,037-541978,苗栗縣造橋鄉大西村13鄰一號,24.622925103452,120.89130366581,NP100-3,合作場所,,
292577585,合作社,有限責任苗栗縣新埔國民小學員生消費合作社,037-792094,苗栗縣通霄鎮新埔里55號,24.542007371579,120.69534561134,NP100-3,合作場所,,
292577592,合作社,有限責任苗栗縣立通霄國民中學員生消費合作社,037-752002,苗栗縣通霄鎮通西里中山路190巷1號,24.491964075478,120.67997601563,NP100-3,合作場所,,
292577588,合作社,有限責任台灣電力公司通宵發電廠員工消費合作社,,苗栗縣通霄鎮海濱路1-31號,24.489799923237,120.67380718426,NP100-3,合作場所,,
292577586,合作社,通霄鎮梅南社區合作農場,,苗栗縣通霄鎮梅南里67-3號,24.46054435981,120.69492289161,NP100-3,合作場所,,
292577587,合作社,有限責任苗栗縣楓樹國民小學員生消費合作社,,苗栗縣通霄鎮楓樹里10鄰116號,24.494634617985,120.72353192626,NP100-3,合作場所,,
292577591,合作社,保証責任苗栗縣通宵彫刻生產合作社,037-752170,苗栗縣通霄鎮通西里29鄰中山路62號,24.488108610441,120.67838772751,NP100-3,合作場所,,
292577589,合作社,有限責任苗栗縣啟新國民中學員生消費合作社,792804,苗栗縣通霄鎮白東里35-2號,24.562591656146,120.70848099535,NP100-3,合作場所,,
292577590,合作社,有限責任苗栗縣通宵國民小學員生消費合作社,,苗栗縣通霄鎮通東里中正路十號,24.491004720372,120.68399046518,NP100-3,合作場所,,
292577608,合作社,有限責任苗栗縣銅鑼鄉公所員工社,,苗栗縣銅鑼鄉永樂路15號,24.487032778446,120.78788624934,NP100-3,合作場所,,
292577600,合作社,有限責任苗栗縣造橋鄉公所員工社,,苗栗縣造橋鄉造橋村老庄三之1號,24.6392463298,120.86552795591,NP100-3,合作場所,,
292577596,合作社,有限責任苗栗縣造橋鄉豐湖國民小學員生消費合作社,037-561031,苗栗縣造橋鄉豐湖村八十尺橋4鄰5號,24.613851414056,120.83718057154,NP100-3,合作場所,,
292577595,合作社,有限責任苗栗縣談文國民小學員生消費合作社,037-624044,苗栗縣造橋鄉談村6鄰54號,,,,,,
292577599,合作社,有限責任苗栗縣造橋國民中學學校員生合作社,,苗栗縣造橋鄉造橋村平仁路27號,24.640866824007,120.86533181537,NP100-3,合作場所,,
292577597,合作社,有限責任苗栗縣造橋國民小學員生消費合作社,037-542686,苗栗縣造橋鄉造橋村14鄰3號,24.637770934804,120.86522726559,NP100-3,合作場所,,
292573378,合作社,有限責任私立大慶商工職業學校員生消費合作社,,彰化縣彰化市莿桐里彰水路145號,24.058737873231,120.51850761448,NP100-3,合作場所,,
292573556,合作社,保證責任彰化縣彰苑果菜生產合作社,04-8984325,彰化縣芳苑鄉三成村小西路28號,23.890806696095,120.33335177691,NP100-3,合作場所,,
292573575,合作社,保証責任彰化縣編織生產合作社,,彰化縣芳苑鄉王功村芳源洽5號,23.964456201408,120.34030605344,NP100-3,合作場所,,
292573566,合作社,有限責任彰化縣芳苑鄉新寶國民小學員生消費合作社,(04)8932885,彰化縣芳苑鄉新寶村新寶段129巷100號,23.978273143268,120.34510222358,NP100-3,合作場所,,
292573573,合作社,保證責任彰化縣王功農漁牧生產合作社,04-8932156,彰化縣芳苑鄉王功村海埔段1780號,23.967386085769,120.34346769149,NP100-3,合作場所,,
292573577,合作社,保證責任彰化縣芳苑農漁運銷合作社,04-8991999,彰化縣芳苑鄉芳和路一段437號,,,,,,
292573581,合作社,有限責任彰化縣漢寶國民小學員生社,,彰化縣芳苑鄉草漢路漢寶段541號,24.006965464124,120.38469177648,NP100-3,合作場所,,
292573578,合作社,有限責任彰化縣芳苑鄉芳苑國民小學員生消費合作社,04-8983993,彰化縣芳苑鄉芳苑村斗苑路230號,23.925590852631,120.31899210708,NP100-3,合作場所,,
292573579,合作社,有限責任彰化縣立草湖國民中學員生消費合作社,04-8861051~2,彰化縣芳苑鄉草湖村功湖路草湖段140號,23.958299604362,120.37836127943,NP100-3,合作場所,,
292573593,合作社,有限責任彰化縣鹿港鎮海埔國民學校員生消費合作社,,彰化縣鹿港鎮海埔里鹿草路二段889號,24.083927863687,120.44427896097,NP100-3,合作場所,,
292573445,合作社,有限責任國立溪湖高級中學員生消費合作社,,彰化縣溪湖鎮湖東里大溪路二段86號,23.968019034297,120.48719191606,NP100-3,合作場所,,
292573451,合作社,有限責任彰化縣田中鎮內安國民小學員生消費合作社,(04)8742252,彰化縣田中鎮中南路三段54號,23.853687669106,120.59973267133,NP100-3,合作場所,,
292573449,合作社,保證責任彰化縣蝸牛果菜生產合作社,048821710,彰化縣溪湖鎮環河路一段170號,23.934392414472,120.46620259254,NP100-3,合作場所,,
292573450,合作社,保證責任彰化縣田頭果菜生產合作社,048853728,彰化縣溪湖鎮頂庄里崙子腳路5之9號,,,,,,
292573462,合作社,有限責任彰化縣田中地政事務所員工消費合作社,,彰化縣田中鎮西路里明慶街158號,23.864450681793,120.58152291204,NP100-3,合作場所,,
292573454,合作社,有限責任彰化縣田中鎮大安國民小學員生消費合作社,(04)8742327,彰化縣田中鎮大安路一段200號,23.840640435182,120.59442092656,NP100-3,合作場所,,
292573455,合作社,有限責任台灣彰化少年輔育院員工消費合作社,,彰化縣田中鎮山腳路5段360巷170號,,,,,,
292573452,合作社,有限責任內政部中區老人之家員工消費合作社,04-8742048,彰化縣田中鎮中南路二段210號,23.853727974572,120.60936205116,NP100-3,合作場所,,
292573458,合作社,有限責任彰化縣田中鎮公所員工消費合作社,,"彰化縣田中鎮田中鎮中路里中  路36號",,,,,,
292573457,合作社,有限責任彰化縣田中鎮明禮國民小學員生消費合作社,(04)8742344,彰化縣田中鎮民光路一段394號,23.869099617877,120.56296733158,NP100-3,合作場所,,
292571850,合作社,有限責任彰化縣大愛照顧服務勞動合作社,047299727,彰化縣彰化市光復路25號1樓,24.080845409211,120.54510372573,NP100-3,合作場所,,
292573461,合作社,有限責任彰化榮家榮民員工消費合作社,04-8749281,彰化縣田中鎮碧峰里中南路二段421號,23.852114171782,120.60593570911,NP100-3,合作場所,,
292573459,合作社,有限責任省立彰化仁愛之家員工消費社,,彰化縣田中鎮碧山里中南路二段210號,23.853727974572,120.60936205116,NP100-3,合作場所,,
292573590,合作社,有限責任彰化縣鹿港地政事務所員工消費合作社,04-7771375,彰化縣鹿港鎮民權路152號,24.057124420466,120.43552972366,NP100-3,合作場所,,
292573592,合作社,保證責任彰化縣第二農特產品運銷合作社,04-7752218,彰化縣鹿港鎮海埔里海浴路900巷99號,24.079782291767,120.43352413184,NP100-3,合作場所,,
292572948,合作社,有限責任國立彰化女子中學員生消費合作社,7240042-218,彰化縣彰化市光復路62號,24.081178446131,120.54347961304,NP100-3,合作場所,,
292573483,合作社,有限責任彰化縣橋頭鄉橋頭國民小學員生消費合作社,04-8731265,彰化縣社頭鄉橋頭村員集路3段528號,23.920209034921,120.58179905088,NP100-3,合作場所,,
292573266,合作社,保證責任彰化縣埔鹽合作農場,04-7780377,彰化縣埔鹽鄉永平村番金路122之1號,24.020384989036,120.43860073062,NP100-3,合作場所,,
292573585,合作社,有限責任國立鹿港高級中學員生消費合作社,04-7787667,彰化縣鹿港鎮中山路661號,24.060738978304,120.42487880672,NP100-3,合作場所,,
292573580,合作社,保證責任彰化縣草湖果菜生產合作社,04-8861877,彰化縣芳苑鄉草湖村功湖路草湖段50號,23.957778772809,120.38069029314,NP100-3,合作場所,,
292573481,合作社,有限責任彰化縣溪湖鎮公所員工消費合作社,,"彰化縣社頭鄉仁新村社  路15號",,,,,,
292573472,合作社,保證責任彰化縣田尾鄉園藝作物生產合作社,(04)8224015,彰化縣田尾鄉溪畔村溪畔巷262號,23.907607392387,120.53831488959,NP100-3,合作場所,,
292573473,合作社,有限責任彰化縣立福興國民中學員生消費合作社,7772009轉170,彰化縣福興鄉員鹿路二段270號,24.040964964966,120.43668365559,NP100-3,合作場所,,
292573469,合作社,彰化縣鮮花生產合作社,,彰化縣田尾鄉柳鳳村民生路154號,23.909752244426,120.5204586548,NP100-3,合作場所,,
292573471,合作社,保證責任彰化縣田尾果菜生產合作社,04-8234060,彰化縣田尾鄉海豐村光華巷110號,23.91773342243,120.49805841433,NP100-3,合作場所,,
292573084,合作社,保證責任彰化縣二水果菜生產合作社,049-202783,彰化縣二水鄉倡和村員集路一段156號,23.803441251369,120.66099322468,NP100-3,合作場所,,
292573478,合作社,彰化縣田尾鄉公所員工消費合作社,,彰化縣田尾鄉饒平村公所路201號,23.892240058703,120.52589376147,NP100-3,合作場所,,
292573588,合作社,有限責任彰化縣鹿港鎮文開國民小學員生消費合作社,(04)7772042,彰化縣鹿港鎮文開路60號,24.057191663548,120.43023512805,NP100-3,合作場所,,
292573477,合作社,有限責任彰化縣立田尾國民中學員生消費合作社,8833174,彰化縣田尾鄉饒平村中學路二段18號,23.890784058425,120.53379725461,NP100-3,合作場所,,
292573098,合作社,有限責任國立員林高級家事商業職業學校員生消費合作社,04-8320260轉255,彰化縣員林鎮中正路56號,23.950469755081,120.57649553539,NP100-3,合作場所,,
292573487,合作社,有限責任彰化縣社頭鄉朝興國民小學員生消費合作社,(04)8732484,彰化縣社頭鄉社石路91號,23.908322378064,120.6064925011,NP100-3,合作場所,,
292573264,合作社,有限責任彰化縣鹽鄉公所員工社,,彰化縣埔鹽鄉好修村員鹿路55號,23.993016865835,120.46553095885,NP100-3,合作場所,,
292573502,合作社,有限責任彰化縣福興鄉文昌國民小學員生消費合作社,04-7702812,彰化縣福興鄉鎮平村1號,24.008061648181,120.4190987351,NP100-3,合作場所,,
292573151,合作社,保證責任彰化縣第二養豬生產合作社,,彰化縣二林鎮永興里二溪路6段527號,23.954709407546,120.41847690297,NP100-3,合作場所,,
292573112,合作社,有限責任彰化縣金墩村林業生產合作社,04-7864588.7862,彰化縣花壇鄉金墩村金墩街121號,24.017566792371,120.54711704851,NP100-3,合作場所,,
292573482,合作社,有限責任彰化縣立社頭國民中學員生消費合作社,8725433,彰化縣社頭鄉廣興村中興路1號,23.901475114784,120.58395518365,NP100-3,合作場所,,
292573488,合作社,有限責任彰化縣福興鄉育新國民小學員生消費合作社,(04)7802521,彰化縣福興鄉二港村福正路4號,24.041373279068,120.41306649114,NP100-3,合作場所,,
292573494,合作社,彰化縣養鰻生產合作社,,彰化縣福興鄉橋頭村橋頭巷74-3號,24.051981359512,120.44198474745,NP100-3,合作場所,,
292573150,合作社,有限責任彰化縣二林鎮萬興國民小學員生消費合作社,04-8682759,彰化縣二林鎮永興里中央南街2號,23.953509160315,120.42000296217,NP100-3,合作場所,,
292573130,合作社,保證責任彰化縣西庄韭菜生產合作社,048680958,彰化縣二林鎮二溪路七段622巷121號,23.956409195825,120.43367128676,NP100-3,合作場所,,
292573525,合作社,有限責任彰化縣竹塘鄉公所員工社,,彰化縣竹塘鄉竹林路一段305號,23.860591904617,120.42778817288,NP100-3,合作場所,,
292573510,合作社,有限責任彰化縣秀水鄉明正國民小學員生消費合作社,04-7692533,彰化縣秀水鄉埔崙村彰水路二段341號,24.026724273222,120.49273228575,NP100-3,合作場所,,
292573497,合作社,有限責任彰化縣福興鄉永豐國小社,,彰化縣福興鄉番社村80號,24.026354382409,120.45474234995,NP100-3,合作場所,,
292573139,合作社,有限責任彰化縣二林鎮育德國小社,,彰化縣二林鎮外竹里西里巷42號,23.874497490783,120.38538850076,NP100-3,合作場所,,
292573131,合作社,有限責任彰化監獄員工消費合作社,(04)8964800#220,彰化縣二林鎮二溪路三段240號,23.938813756575,120.38466959823,NP100-3,合作場所,,
292573149,合作社,有限責任彰化縣興華國小社,,彰化縣二林鎮東興里福建巷2之1號,23.88837525223,120.39474956923,NP100-3,合作場所,,
292573133,合作社,彰化市東芳國校員生社,,彰化縣彰化市彰馬路45號,24.062457699018,120.5161119028,NP100-3,合作場所,,
292573138,合作社,彰化縣葡萄生產合作社,,彰化縣二林鎮外竹里中央巷2號,23.872799233148,120.38978178873,NP100-3,合作場所,,
292573137,合作社,有限責任彰化縣立原斗國民中學員生消費合作社,04-8904600,彰化縣二林鎮原斗里原竹路872號,23.894313718551,120.42670186931,NP100-3,合作場所,,
292573140,合作社,彰化縣二林鎮廣興國小員生社,,彰化縣二林鎮廣興里廣興巷2之1號,23.872992092727,120.3660433784,NP100-3,合作場所,,
292573142,合作社,保証責任彰化縣二林合作農場,,彰化縣二林鎮後厝里新華巷9號,23.899832702046,120.39464458838,NP100-3,合作場所,,
292573147,合作社,保證責任彰化縣羊乳運銷合作社,,彰化縣二林鎮東和里大成路1_6號,23.898983999286,120.37231584112,NP100-3,合作場所,,
292573145,合作社,彰化縣二林鎮原斗國校員生社,,彰化縣二林鎮斗苑路一段865號,23.89628258645,120.42703367123,NP100-3,合作場所,,
292573143,合作社,保證責任彰化縣二林儒林果菜生產合作社,0921711058,彰化縣二林鎮後厝里永和街92號,23.898336196448,120.38311104956,NP100-3,合作場所,,
292573193,合作社,有限責任彰化縣北斗鎮螺陽國民小學員生消費合作社,04-8882039,彰化縣北斗鎮斗苑路150號,23.872262773036,120.52456248242,NP100-3,合作場所,,
292573160,合作社,保證責任彰化縣二林群豐蔬果生產合作社,048903699,彰化縣二林鎮路西巷19之13號,23.885293140522,120.42948431549,NP100-3,合作場所,,
292573155,合作社,有限責任彰化縣二林鎮萬合國民小學員生消費合作社,04-8902164,彰化縣二林鎮萬合里江山巷1號,23.92538909303,120.40955434378,NP100-3,合作場所,,
292573501,合作社,保證責任彰化縣鰻蝦生產合作社,04-7772145,彰化縣福興鄉西勢村員鹿路二段164號,24.039254050985,120.43587912484,NP100-3,合作場所,,
292573153,合作社,保證責任彰化縣二林寶島雜糧生產合作社,0937920325,彰化縣二林鎮華崙里光復路73之5號,23.947711364809,120.44376480797,NP100-3,合作場所,,
292573154,合作社,保證責任彰化縣原斗果菜生產合作社,04-8901347,彰化縣二林鎮萬原路一段182號,23.900378693968,120.4256429286,NP100-3,合作場所,,
292573157,合作社,有限責任國立二林高級工商職業學校員生消費合作社,8965152,彰化縣二林鎮豐田里斗苑路四段500號,23.899921323627,120.37726696533,NP100-3,合作場所,,
292573156,合作社,保證責任彰化縣瓜類果菜生產合作社,048683731,彰化縣二林鎮萬興里二溪路6段592號,23.955344368664,120.41652560207,NP100-3,合作場所,,
292573159,合作社,有限責任彰化縣二林鎮新生國民小學員生消費合作社,04-8964330,彰化縣二林鎮趙甲里鎮平巷59號,23.937523082823,120.39488129531,NP100-3,合作場所,,
292573158,合作社,有限責任彰化縣二林鎮公所員工社,,彰化縣二林鎮豐苑路四段630號,,,,,,
292573169,合作社,縣立二水國中員生消費合作社,,彰化縣二水鄉月眉巷13號,,,,,,
292573503,合作社,保證責任彰化縣慶全地瓜生產合作社,047709000,彰化縣福興鄉頂粘村頂粘街447號,24.033657166391,120.39597123326,NP100-3,合作場所,,
292573161,合作社,有限責任彰化縣香田國小員生社,,彰化縣二林鎮香田里儒林路10-1號,23.878204236159,120.374977378,NP100-3,合作場所,,
292573505,合作社,保證責任彰化縣鹿港農漁牧生產合作社,04-7772684,彰化縣鹿港鎮新宮里泉州街2號,24.05923674381,120.43005579149,NP100-3,合作場所,,
292573164,合作社,有限責任彰化縣二水鄉二水國民小學員生消費合作社,04-8792040,彰化縣二水鄉光文路二段119號,23.81077194809,120.61784959634,NP100-3,合作場所,,
292573168,合作社,有限責任彰化縣二水鄉源泉國民小學員生消費合作社,(04)8792304,彰化縣二水鄉大園村員集路二段316號,23.801828660903,120.63806989177,NP100-3,合作場所,,
292572350,合作社,有限責任彰化縣台灣中小企業銀行員工消費社,,彰化縣彰化市光復路61號,24.080638874474,120.54351614207,NP100-3,合作場所,,
292573162,合作社,有限責任彰化縣二水鄉公所員工消費合作社,,彰化縣二水鄉二水村員集路152號,,,,,,
292573509,合作社,有限責任彰化縣廢棄物運銷合作社,04-7681745,彰化縣秀水鄉埔崙村彰水路二段149號,24.023069746825,120.49125799339,NP100-3,合作場所,,
292573167,合作社,有限責任彰化縣二水鄉復興國民小學員生消費合作社,04-8745935,彰化縣二水鄉員集路五段472號,23.829556128207,120.6047638824,NP100-3,合作場所,,
292573165,合作社,有限責任彰化縣二水鄉合和社區合作社,,彰化縣二水鄉合和村番田巷八號之一,23.822021016795,120.61483123571,NP100-3,合作場所,,
292573180,合作社,保證責任彰化縣北斗農牧生產合作社,04-8877630,彰化縣北斗鎮中寮里中寮路58-5號,23.877614064813,120.51101998133,NP100-3,合作場所,,
292573171,合作社,有限責任彰化縣伸港鄉機關聯合員工消費合作社,,彰化縣伸港鄉中正路89號,24.144640767489,120.48528203791,NP100-3,合作場所,,
292573192,合作社,有限責任彰化縣和美地政事務所員工消費合作社,04-7552217,彰化縣和美鎮德美路515號,24.117386595658,120.49865432102,NP100-3,合作場所,,
292573174,合作社,保證責任彰化縣伸港果菜生產合作社,04-7992974,彰化縣伸港鄉彰新路7段601巷218號,24.154251743431,120.4946497117,NP100-3,合作場所,,
292573173,合作社,有限責任彰化縣新港鄉新港國民小學員生消費合作社,7991395,彰化縣伸港鄉和平路60號,24.149003179284,120.4848190147,NP100-3,合作場所,,
292573179,合作社,保證責任彰化縣北斗香菜生產合作社,0935-367637,彰化縣北斗鎮中寮里中寮路3-7號,23.877762702991,120.51084207604,NP100-3,合作場所,,
292573177,合作社,彰化縣養鴨生產合作社,,彰化縣伸港鄉曾家村中山路893號,24.146707906748,120.46891608414,NP100-3,合作場所,,
292573175,合作社,有限責任彰化縣伸港鄉大同國民小學員生消費合作社,04-79822304,彰化縣伸港鄉彰新路七段724號,24.159979675525,120.49190846838,NP100-3,合作場所,,
292573384,合作社,有限責任彰化縣立陽明國民中學員生消費合作社,7222263轉170,彰化縣彰化市長順街76號,24.086151966438,120.55046198742,NP100-3,合作場所,,
292573306,合作社,保證責任彰化縣平和香蕉運銷合作社,048538818,彰化縣大村鄉擺塘村擺塘巷17之12號,23.981013596284,120.56225505362,NP100-3,合作場所,,
292573305,合作社,有限責任彰化縣私立大葉大學員生消費合作社,,彰化縣大村鄉山腳路112號,23.981943078674,120.58982057969,NP100-3,合作場所,,
292573303,合作社,有限責任彰化縣大村鄉大村國民小學員生消費合作社,04-8522794,彰化縣大村鄉中正西路381號,23.993722404069,120.54541282967,NP100-3,合作場所,,
292573328,合作社,有限責任彰化縣立文化中心員工消費合作社,,彰化縣彰化市中山路二段500號,24.078633552603,120.54530251783,NP100-3,合作場所,,
292573313,合作社,有限責任彰化縣大村鄉村東國民小學員生消費合作社,04-8526328,彰化縣大村鄉福興村山腳路102~1號,23.988327857653,120.58681586034,NP100-3,合作場所,,
292573311,合作社,有限責任彰化縣立大村國民中學員生消費合作社,04-8528962,彰化縣大村鄉村上村中山路二段240號,23.988170927004,120.56550366192,NP100-3,合作場所,,
292573344,合作社,有限責任彰化縣彰化市南興國民小學員生消費合作社,,彰化縣彰化市南興里中山路一段213號,24.058114557073,120.53404886119,NP100-3,合作場所,,
292573315,合作社,有限責任彰化縣立彰泰國民中學員生消費合作社,04-7369676,彰化縣彰化市下廓里自強路357號,24.091692088711,120.54841682282,NP100-3,合作場所,,
292573327,合作社,有限責任彰化縣文化局員工消費合作社,04-7250057分机102,彰化縣彰化市中山路二段500號,24.078633552603,120.54530251783,NP100-3,合作場所,,
292573324,合作社,有限責任台電公司彰化區營業處員工社,,彰化縣彰化市中山路二段418號,24.076192855671,120.54442651925,NP100-3,合作場所,,
292573320,合作社,有限責任彰化縣彰化市南興國小員生消費合作社,04-7622827,彰化縣彰化市中山路一段213號,24.058114557073,120.53404886119,NP100-3,合作場所,,
292573334,合作社,有限責任彰化縣彰化地政事務所員工消費合作社,(04)7271374,彰化縣彰化市中興路100號,24.070414152649,120.54605301682,NP100-3,合作場所,,
292573342,合作社,保證責任彰化縣婦女手工藝生產合作社,7220644,彰化縣彰化市光復路107號,24.080498914379,120.54170252158,NP100-3,合作場所,,
292573333,合作社,有限責任彰化縣警察局員工消費合作社,04-7619370轉2254,彰化縣彰化市中正路二段七七八號,24.065905826269,120.53433648271,NP100-3,合作場所,,
292573332,合作社,有限責任彰化縣立彰安國民中學員生消費合作社,04-7270460,彰化縣彰化市中正路二段530號,24.070666454637,120.53526414582,NP100-3,合作場所,,
292573330,合作社,有限責任彰化縣各級學校員生消費合作社聯合社,04-7234836,彰化縣彰化市中正路2段450號,24.072468644602,120.53515616381,NP100-3,合作場所,,
292573329,合作社,有限責任彰化縣彰化市中山國民小學員生消費合作社,04-7222033,彰化縣彰化市中山路二段678號,24.081908738328,120.54663755407,NP100-3,合作場所,,
292573341,合作社,有限責任彰化縣體育場員工消費合作社,,彰化縣彰化市介壽里健興路一號,24.06731813221,120.55188607641,NP100-3,合作場所,,
292573339,合作社,有限責任台灣土地銀行彰化分行員工消費合作社,,彰化縣彰化市中華路310號,24.078305480288,120.53928511346,NP100-3,合作場所,,
292573337,合作社,有限責任審計部台灣省彰化縣審計室員工社,,彰化縣彰化市中興路91號,24.070502853323,120.55102122599,NP100-3,合作場所,,
292573382,合作社,保証責任彰化市第一倉庫利用社,,彰化縣彰化市西興里興莊29-44號,24.074931638029,120.53405253073,NP100-3,合作場所,,
292573367,合作社,有限責任台灣自來水股份有限公司第十一區管理處員工消費合作社,,彰化縣彰化市桃源里公園路二段一號,24.074522885792,120.55665732775,NP100-3,合作場所,,
292573352,合作社,有限責任彰化縣私立文興女子高級中學員生消費合作社,,彰化縣彰化市員集路三段93號,,,,,,
292573351,合作社,有限責任國立彰化師範大學附屬高級工業職業學校員生消費合作社,04-7232265,彰化縣彰化市和調里工校街一號,24.08258869631,120.55598068467,NP100-3,合作場所,,
292573347,合作社,有限責任國立彰化高級商業職業學校員生消費合作社,04-47267517,彰化縣彰化市南郭路一段326號,24.074952801003,120.54422408455,NP100-3,合作場所,,
292573349,合作社,有限責任台灣省立彰化社會教育館員工社,,彰化縣彰化市卦山路3號,24.077540774727,120.54607523407,NP100-3,合作場所,,
292573348,合作社,有限責任彰化縣立彰化藝術高級中學員生消費合作社,04-7222844,彰化縣彰化市卦山路13號,24.078764513717,120.55448925722,NP100-3,合作場所,,
292573350,合作社,有限責任彰化縣立信義國民中小學員生消費合作社,04-7635888,彰化縣彰化市向陽街168號,24.062890531612,120.52845244711,NP100-3,合作場所,,
292573366,合作社,有限責任彰化縣私立精誠高級中學員生消費合作社,7622790,彰化縣彰化市林森路200號,24.07352786772,120.52825296781,NP100-3,合作場所,,
292573356,合作社,保證責任彰化縣禮儀公用合作社,7220446,彰化縣彰化市實踐路1號3樓,24.083850352307,120.55383732326,NP100-3,合作場所,,
292573353,合作社,有限責任彰化縣立彰興國民中學員生消費合作社,7110743-160,彰化縣彰化市埔西街107號,24.059505142008,120.5382133837,NP100-3,合作場所,,
292573355,合作社,保証責任彰化縣第一住宅公用合作社,,彰化縣彰化市壽生里永樂街33號,24.076256804547,120.54325285067,NP100-3,合作場所,,
292573354,合作社,有限責任彰化縣彰化市聯興國民小學員生消費合作社,04-7384340,彰化縣彰化市埔里一心南街208號,24.076360042256,120.59746527417,NP100-3,合作場所,,
292573357,合作社,保證責任彰化縣合作社聯合社,047-231151,彰化縣彰化市崙平里建和街30號5樓,24.07046069483,120.53212972058,NP100-3,合作場所,,
292573359,合作社,保證責任彰化縣第二果菜運銷合作社,04-7622754,彰化縣彰化市平和里新平路146號,24.066026600355,120.52141869897,NP100-3,合作場所,,
292573358,合作社,有限責任國立師範大學附屬高級工業職業學校員生消費合作社,,彰化縣彰化市工校街1號,24.08258869631,120.55598068467,NP100-3,合作場所,,
292573363,合作社,有限責任彰化縣彰化市忠孝國民小學員生消費合作社,(04)7523944,彰化縣彰化市忠誠路61號,24.084239315023,120.53219587238,NP100-3,合作場所,,
292573364,合作社,保證責任彰化縣農業合作社聯合社,04-7292987,彰化縣彰化市旭光路80號,24.074415202412,120.54650468517,NP100-3,合作場所,,
292573361,合作社,有限責任彰化縣彰化市大竹國民小學員生消費合作社,7381436,彰化縣彰化市彰南路二段164巷41號,24.084574530495,120.58074888578,NP100-3,合作場所,,
292572673,合作社,保證責任彰化縣秀水合作農場,,彰化縣秀水鄉鶴鳴村民主街231號,24.058381219778,120.49594705225,NP100-3,合作場所,,
292573381,合作社,有限責任彰化縣教育電台彰化台員工消費合作社,,彰化縣彰化市虎崗路5-1號,24.058217101631,120.57262099062,NP100-3,合作場所,,
292573373,合作社,有限責任彰化縣永靖福興國民小學員生消費合作社,04-8231023,彰化縣永靖鄉永福路2段160號,23.919923497578,120.52262687886,NP100-3,合作場所,,
292573368,合作社,有限責任行政院國軍退除役官兵輔導委員會彰化就業訓練中心員工社,,彰化縣彰化市桃源里桃源莊一號,24.066105393748,120.57184337339,NP100-3,合作場所,,
292573371,合作社,有限責任彰化縣彰化市泰和國民小學員生消費合作社,7222433,彰化縣彰化市泰和路二段145巷1號,24.090994116091,120.55197403245,NP100-3,合作場所,,
292573369,合作社,台灣省立老人養護中心員工社,,彰化縣彰化市桃源里虎崗路1號,24.066645108159,120.56886393546,NP100-3,合作場所,,
292573374,合作社,有限責任彰化縣彰化市三民國民小學員生消費合作社,,彰化縣彰化市田中里77-1號,24.084924768126,120.60419221466,NP100-3,合作場所,,
292573380,合作社,有限責任內政部警政署保安警察第四總隊員工消費合作社,04-7260744*6069,彰化縣彰化市華陽里南郭路一段三八三號,24.072346074047,120.5561191151,NP100-3,合作場所,,
292573377,合作社,有限責任彰化縣彰化市大成國民小學員生消費合作社,,彰化縣彰化市自強路303號,24.091362236408,120.54709991364,NP100-3,合作場所,,
292573375,合作社,有限責任彰化縣彰化市石牌國民小學員生消費合作社,(04)7381672,彰化縣彰化市石牌里田坑路一段9號,24.05852674472,120.61427163438,NP100-3,合作場所,,
292573379,合作社,保證責任彰化縣自發木耳生產合作社,047224535,彰化縣彰化市華山里旭光路80號,24.074415202412,120.54650468517,NP100-3,合作場所,,
292573412,合作社,保証責任彰化縣水尾社區合作農場,,彰化縣溪州鄉溪厝村中山路2段112號,23.848221829996,120.48307465943,NP100-3,合作場所,,
292573396,合作社,保證責任彰化縣永靖合作農場,04-8240696~7,彰化縣永靖鄉瑚璉村﹝路﹞216號,23.930506983958,120.54586990738,NP100-3,合作場所,,
292573385,合作社,有限責任彰化縣立彰德國民中學員生消費合作社,04-7370737,彰化縣彰化市香山里彰南路二段512巷97號,24.080360357289,120.58953362908,NP100-3,合作場所,,
292573395,合作社,有限責任彰化縣永靖鄉公所員工消費合作社,,彰化縣永靖鄉永車村永靖街10號,23.922989976014,120.54599863654,NP100-3,合作場所,,
292573388,合作社,有限責任國立永靖高級工業職業學校員生消費合作社,04-8221810,彰化縣永靖鄉永北村永坡路101號,23.926688489297,120.54550514329,NP100-3,合作場所,,
292573389,合作社,有限責任彰化縣隆安居家照顧勞動合作社,04-8237376,彰化縣永靖鄉永北村王厝路115號,23.929467740018,120.53825327284,NP100-3,合作場所,,
292573400,合作社,有限責任彰化縣永靖鄉德興國民小學員生消費合作社,(04)8222158,彰化縣永靖鄉竹子村竹後巷47號,23.924097538345,120.50365720754,NP100-3,合作場所,,
292573397,合作社,有限責任彰化縣立永靖國民中學員生消費合作社,8221929,彰化縣永靖鄉瑚璉村錫壽路123號,23.930028709485,120.55118018676,NP100-3,合作場所,,
292573409,合作社,有限責任彰化縣立溪陽國民中學員生消費合作社,04-8802151,彰化縣溪州鄉成功村下柑路一號,23.824352681443,120.54232978044,NP100-3,合作場所,,
292573398,合作社,有限責任彰化縣福德國民小學員生消費合作社,(04)8224154,彰化縣永靖鄉福德巷36號,,,,,,
292571108,合作社,有限責任777,,,,,,,,
292573408,合作社,有限責任彰化縣溪州鄉溪州國民小學員生消費合作社,04-8895013,彰化縣溪州鄉尾厝村中山路三段451號,23.853494395878,120.49747534459,NP100-3,合作場所,,
292573404,合作社,保證責任彰化縣溪州聖文果菜生產合作社,0980830818,彰化縣溪州鄉圳寮村登山路三段330號,23.846462286476,120.52788496961,NP100-3,合作場所,,
292573403,合作社,溪洲鄉圳寮國校員生社,,彰化縣溪州鄉圳寮村下樹巷29號,23.839075707508,120.52292497318,NP100-3,合作場所,,
292573402,合作社,彰化縣溪州鄉南州國小員生社,,彰化縣溪州鄉公園路95號,23.852997014688,120.49091143479,NP100-3,合作場所,,
292573407,合作社,有限責任台灣省水利局第四工程處員工社,,彰化縣溪州鄉尾厝村中山路176-5號,23.852569184249,120.49711493191,NP100-3,合作場所,,
292573406,合作社,保證責任彰化縣溪州果菜生產合作社,,彰化縣溪州鄉大庄村登山路一段22號,23.814731723688,120.56917134317,NP100-3,合作場所,,
292573422,合作社,有限責任彰化縣溪湖國民小學員生消費合作社,04-8853126,彰化縣溪湖鎮光華里二溪路一段35號,23.959230256764,120.47852892987,NP100-3,合作場所,,
292573434,合作社,保證責任彰化縣溪湖西勢厝果菜生產合作社,,彰化縣溪湖鎮彰水路一段302號,23.926888757565,120.47755519611,NP100-3,合作場所,,
292573421,合作社,保證責任彰化縣河東果菜合作社,,彰化縣溪湖鎮二溪路二段313號,23.958652079834,120.45865615858,NP100-3,合作場所,,
292573414,合作社,有限責任彰化縣溪州鄉僑義國民學校員生合作社,,彰化縣溪州鄉溪厝村中山路二段326號,23.848221829996,120.48307465943,NP100-3,合作場所,,
292573419,合作社,保證責任彰化縣青信果菜生產合作社,04-8806158,彰化縣溪州鄉西畔村溪下路2段182號,23.832967226029,120.53316313091,NP100-3,合作場所,,
292571201,合作社,彰化縣各級學校員生社聯合社,,,,,,,,
292573418,合作社,保證責任彰化縣溪州合作農場,04-8887369,彰化縣溪州鄉西畔村新生巷四號,23.820669981035,120.5636608833,NP100-3,合作場所,,
292571209,合作社,保證責任彰化縣禾康果菜生產合作社,048722824,彰化縣員林鎮新生路247號,23.961841835036,120.56858758133,NP100-3,合作場所,,
292573416,合作社,有限責任彰化縣潮洋國小員生消費合作社,,彰化縣溪州鄉潮洋村陸軍路一段146號,23.81425349125,120.51947466591,NP100-3,合作場所,,
292571232,合作社,有限責任彰化縣原住民人力勞動生產合作社,04-7553308,彰化縣和美鎮柑竹路216號,24.107905887318,120.51609352444,NP100-3,合作場所,,
292573420,合作社,保證責任彰化縣立豐番石榴生產合作社,048880465,彰化縣溪州鄉西畔村登山路2段426號,23.832061832866,120.53826619686,NP100-3,合作場所,,
292573428,合作社,有限責任彰化縣溪湖鎮湖西國民小學員生消費合作社,04-8852234,彰化縣溪湖鎮大突里北聖路20號,23.959966730903,120.46770569846,NP100-3,合作場所,,
292573424,合作社,有限責任彰化縣田中高級中學員生消費合作社,04-8745820,彰化縣田中鎮文化街23號,23.85496768371,120.58872152496,NP100-3,合作場所,,
292573426,合作社,有限責任彰化縣溪湖鎮公所員工消費社,,彰化縣溪湖鎮員鹿路三段245號,23.960391655496,120.47920060981,NP100-3,合作場所,,
292573425,合作社,彰化縣貝介生產合作社,,彰化縣溪湖鎮光華里員鹿路3段179號之2樓,23.960728674616,120.47935967809,NP100-3,合作場所,,
292571349,合作社,有限責任彰化縣私立正德高級中學員生消費合作社,04-7524109轉222,彰化縣彰化市彰水路145號,24.058737873231,120.51850761448,NP100-3,合作場所,,
292573432,合作社,有限責任彰化縣溪湖大員美果菜生產合作社,048857212,彰化縣溪湖鎮媽厝里湳底路70號,23.937673959609,120.49930914767,NP100-3,合作場所,,
292573430,合作社,有限責任彰化縣美嘉看護家事管理勞動合作社,0988397775,彰化縣溪湖鎮媽厝里湳底路102-31號,23.93566351662,120.48543228358,NP100-3,合作場所,,
292573431,合作社,有限責任彰化縣溪湖鎮媽庴國民小學員生消費合作社,04-8853225,彰化縣溪湖鎮媽厝里湳底路67號,23.93498635796,120.49713485536,NP100-3,合作場所,,
292573442,合作社,有限責任彰化縣肉品巿場員工消費合作社,,彰化縣溪湖鎮河東里濱河街76號,23.955005284402,120.45050390656,NP100-3,合作場所,,
292573441,合作社,有限責任彰化縣立成功國民中學員生消費合作社,04-8828588,彰化縣溪湖鎮汴頭里福德路310號,23.951520290184,120.47188995711,NP100-3,合作場所,,
292573559,合作社,保證責任彰化縣芳苑和享果菜生產合作社,04-8983392,彰化縣芳苑鄉上林路上段278巷71弄6號,23.911597125812,120.32936012042,NP100-3,合作場所,,
292573448,合作社,有限責任彰化縣溪湖鎮媽厝國民小學員生消費合作社,04-8853225,彰化縣溪湖鎮湳底路67號,23.941183944211,120.4960225372,NP100-3,合作場所,,
292573443,合作社,有限責任彰化縣溪湖鎮果菜巿場員工消費合作社,,彰化縣溪湖鎮湖東里員鹿路45-1號,23.957699351337,120.48248856843,NP100-3,合作場所,,
292573447,合作社,有限責任彰化縣溪湖地政事務所員工消費合作社,(04)8813119,彰化縣溪湖鎮湖西里大公路99號,23.961252147079,120.47460076366,NP100-3,合作場所,,
292573445,合作社,有限責任國立溪湖高級中學員生消費合作社,,彰化縣溪湖鎮湖東里大溪路二段86號,23.968019034297,120.48719191606,NP100-3,合作場所,,
292573459,合作社,有限責任省立彰化仁愛之家員工消費社,,彰化縣田中鎮碧山里中南路二段210號,23.853727974572,120.60936205116,NP100-3,合作場所,,
