id,type,name,phone,address,latitude,longitude,nptype,nptypename,purpose,mission
288944445,合作社,有限責任國立馬祖高級中學員生消費合作社,0937-505878,連江縣南竿鄉介壽村374號,26.154321848591,119.94978813224,NP100-3,合作場所,,
288939532,合作社,有限責任宜蘭縣蘭陽林業生產合作社,,宜蘭縣蘇澳鎮自強路8號,24.634236023701,121.82967412334,NP100-3,合作場所,,
288944246,合作社,有限責任法務部矯正署苗栗看守所消費合作社,,苗栗縣苗栗市新英里南勢100號,24.557680930139,120.80184226112,NP100-3,合作場所,,
288944248,合作社,有限責任苗栗縣私立建臺高級中學員生消費合作社,037-353270,苗栗縣苗栗市福麗里至公路251號,24.560122767416,120.81487553221,NP100-3,合作場所,,
288944297,合作社,有限責任苗栗縣立頭份國民中學學校員生合作社,,苗栗縣頭份鎮中央路275號,24.691740779045,120.90135014043,NP100-3,合作場所,,
288944242,合作社,有限責任苗栗縣立文華國民小學員生消費合作社,,苗栗縣苗栗市文山里25鄰正發路133號,24.569005619208,120.81798001206,NP100-3,合作場所,,
288944300,合作社,有限責任苗栗縣油甘運銷合作社,0910988498,苗栗縣頭份鎮中央路576號,24.694503992335,120.89459179534,NP100-3,合作場所,,
288944227,合作社,有限責任苗栗縣造橋國民中學學校員生合作社,,苗栗縣造橋鄉造橋村平仁路27號,24.640866824007,120.86533181537,NP100-3,合作場所,,
288944242,合作社,有限責任苗栗縣立文華國民小學員生消費合作社,,苗栗縣苗栗市文山里25鄰正發路133號,24.569005619208,120.81798001206,NP100-3,合作場所,,
288944227,合作社,有限責任苗栗縣造橋國民中學學校員生合作社,,苗栗縣造橋鄉造橋村平仁路27號,24.640866824007,120.86533181537,NP100-3,合作場所,,
288944248,合作社,有限責任苗栗縣私立建臺高級中學員生消費合作社,037-353270,苗栗縣苗栗市福麗里至公路251號,24.560122767416,120.81487553221,NP100-3,合作場所,,
288944246,合作社,有限責任法務部矯正署苗栗看守所消費合作社,,苗栗縣苗栗市新英里南勢100號,24.557680930139,120.80184226112,NP100-3,合作場所,,
288944300,合作社,有限責任苗栗縣油甘運銷合作社,0910988498,苗栗縣頭份鎮中央路576號,24.694503992335,120.89459179534,NP100-3,合作場所,,
288944297,合作社,有限責任苗栗縣立頭份國民中學學校員生合作社,,苗栗縣頭份鎮中央路275號,24.691740779045,120.90135014043,NP100-3,合作場所,,
288940602,合作社,保證責任彰化縣芳苑農漁運銷合作社,04-8991999,彰化縣芳苑鄉漢寶村成功二路296號,24.006911466234,120.36679761297,NP100-3,合作場所,,
288940602,合作社,保證責任彰化縣芳苑農漁運銷合作社,04-8991999,彰化縣芳苑鄉漢寶村成功二路296號,24.006911466234,120.36679761297,NP100-3,合作場所,,
288937792,合作社,,,,,,,,,
288938360,合作社,保證責任南投縣同富合作農場,049-2702193,南投縣信義鄉同富村同和巷2-1號,23.600050899887,120.89049861961,NP100-3,合作場所,,
288938369,合作社,保證責任南投縣信義果菜運銷合作社,049-2791023,南投縣信義鄉民德村玉山路97-2號,23.705680833407,120.85350056339,NP100-3,合作場所,,
288938371,合作社,保證責任南投縣信義青梅生產合作社,,南投縣信義鄉自強村綠美巷9－2號.,23.691172325231,120.85116616974,NP100-3,合作場所,,
288938438,合作社,有限責任南投縣埔里鎮花卉生產合作社,049-2982112,南投縣埔里鎮七賢二街50號,23.976156887242,120.99128186843,NP100-3,合作場所,,
288938467,合作社,有限責任南投縣珠山合作農場,"2422300 , 0921706188",南投縣埔里鎮籃城里（路）2巷6號,23.981226319252,120.95615310946,NP100-3,合作場所,,
288938479,合作社,有限責任南投縣蜈蚣合作農場,,南投縣埔里鎮鯉魚路28號.,23.960537615373,120.9997061095,NP100-3,合作場所,,
288938512,合作社,保證責任南投縣竹山鎮福興果菜運銷合作社,0925-056573,南投縣竹山鎮鯉南路30之3號,23.747555721014,120.67746184956,NP100-3,合作場所,,
288938571,合作社,有限責任南投縣鹿谷鄉凍頂茶葉生產合作社,049-2752215,南投縣鹿谷鄉彰雅村凍頂巷43-1號,23.74866733841,120.76865391924,NP100-3,合作場所,,
288938371,合作社,保證責任南投縣信義青梅生產合作社,,南投縣信義鄉自強村綠美巷9－2號.,23.691172325231,120.85116616974,NP100-3,合作場所,,
288938438,合作社,有限責任南投縣埔里鎮花卉生產合作社,049-2982112,南投縣埔里鎮七賢二街50號,23.976156887242,120.99128186843,NP100-3,合作場所,,
288938467,合作社,有限責任南投縣珠山合作農場,"2422300 , 0921706188",南投縣埔里鎮籃城里（路）2巷6號,23.981226319252,120.95615310946,NP100-3,合作場所,,
288938479,合作社,有限責任南投縣蜈蚣合作農場,,南投縣埔里鎮鯉魚路28號.,23.960537615373,120.9997061095,NP100-3,合作場所,,
288938512,合作社,保證責任南投縣竹山鎮福興果菜運銷合作社,0925-056573,南投縣竹山鎮鯉南路30之3號,23.747555721014,120.67746184956,NP100-3,合作場所,,
288938571,合作社,有限責任南投縣鹿谷鄉凍頂茶葉生產合作社,049-2752215,南投縣鹿谷鄉彰雅村凍頂巷43-1號,23.74866733841,120.76865391924,NP100-3,合作場所,,
288938369,合作社,保證責任南投縣信義果菜運銷合作社,049-2791023,南投縣信義鄉民德村玉山路97-2號,23.705680833407,120.85350056339,NP100-3,合作場所,,
288937792,合作社,,,,,,,,,
288938360,合作社,保證責任南投縣同富合作農場,049-2702193,南投縣信義鄉同富村同和巷2-1號,23.600050899887,120.89049861961,NP100-3,合作場所,,
288943648,合作社,有限責任臺東縣立東海國民中學員生消費合作社,089-323271#153,臺東市中華路一段719巷51號,,,,,,
288943734,合作社,有限責任臺東種畜繁殖場員工消費合作社,089-224634,臺東縣卑南鄉賓朗村27鄰30號,22.80307027101,121.09542236088,NP100-3,合作場所,,
288943784,合作社,保證責任臺東縣杋札徠原住民造林園藝勞動合作社,089-891874,臺東縣東河鄉北源村德高老19號,23.059459185651,121.30165118588,NP100-3,合作場所,,
288943780,合作社,有限責任臺東縣成功鎮原住民社區文創合作社,,臺東縣成功鎮白蓮路145號,23.129261252639,121.40024551875,NP100-3,合作場所,,
288943838,合作社,有限責任臺東有機友善農產運銷合作社,089320184,臺東縣臺東市志航路一段752巷15號,22.789228332611,121.13345145159,NP100-3,合作場所,,
288943813,合作社,"有限責任臺東縣縱谷 原住民 社區合作社",0921811420,臺東縣海端鄉崁頂村1鄰中福一號,23.045820546923,121.1491393303,NP100-3,合作場所,,
288943846,合作社,保證責任臺東縣東海岸原住民造林勞動合作社,089-356028,臺東縣臺東市正氣北路388巷12號,22.754404876655,121.1341009709,NP100-3,合作場所,,
288943874,合作社,有限責任臺東縣長濱地區機關聯合員工消費合作社,832139,臺東縣長濱鄉(村)4鄰9號,,,,,,
288943886,合作社,有限責任臺東縣關山鎮德高國民小學員生消費合作社,089-931149,臺東縣關山鎮德高里7鄰16號,23.073250177404,121.17838537145,NP100-3,合作場所,,
288943903,合作社,有限責任法務部矯正署臺東戒治所消費合作社,089-581014,臺東縣鹿野鄉瑞豐村永嶺路270號,22.970534024431,121.12542042136,NP100-3,合作場所,,
288938743,合作社,有限責任台東縣撒布優原住民社區合作社,0919147955,台東縣金峰鄉新興村3鄰54號,22.63457085696,121.00092853945,NP100-3,合作場所,,
288938733,合作社,保證責任臺東縣臺東市原住民建築勞動合作社,0915039095,台東市傳廣路461號1樓,,,,,,
288938737,合作社,保證責任臺東縣銓益農業運銷合作社,089-570839,台東縣卑南鄉美農村8鄰東成64-3號,22.832385506707,121.09234531436,NP100-3,合作場所,,
288943410,合作社,有限責任台東縣大台東計程車運輸合作社,327258,臺東市漢陽北路106號,,,,,,
288943498,合作社,有限責任臺東縣立卑南國民中學員生消費合作社,089-224353,臺東市更生北路766號,,,,,,
288943942,合作社,花蓮縣政府員工消費合作社,,花蓮市美崙府前路17號,,,,,,
288943954,合作社,有限責任花蓮縣原住民有機農業生產合作社,", 0912226880",花蓮縣光復鄉大同村佛祖街47巷2號,23.664407472707,121.43136997811,NP100-3,合作場所,,
288944013,合作社,有限責任花蓮縣銀川有機農產品生產合作社,,花蓮縣富里鄉富里村公埔路2段75號,23.178503172985,121.24460687105,NP100-3,合作場所,,
288944038,合作社,有限責任臺北榮民總醫院玉里分院員工消費合作社,,花蓮縣玉里鎮新光街91號,,,,,,
288944076,合作社,保證責任花蓮向日葵農產運銷合作社,,花蓮縣花蓮市中山路2段1號2樓,24.010246893937,121.58226629779,NP100-3,合作場所,,
288943942,合作社,花蓮縣政府員工消費合作社,,花蓮市美崙府前路17號,,,,,,
288943954,合作社,有限責任花蓮縣原住民有機農業生產合作社,", 0912226880",花蓮縣光復鄉大同村佛祖街47巷2號,23.664407472707,121.43136997811,NP100-3,合作場所,,
288941829,合作社,有限責任法務部矯正署澎湖監獄消費合作社,06-9211151,澎湖縣湖西鄉鼎灣村1之1號,23.590232182839,119.62211071279,NP100-3,合作場所,,
288941842,合作社,有限責任澎湖縣西嶼鄉機關學校聯合員工消費合作社,06-9982611,澎湖縣西嶼鄉池東村73號2樓,23.601056353964,119.50678946462,NP100-3,合作場所,,
288941854,合作社,有限責任澎湖縣立馬公國民中學員生消費合作社,06-9273510,澎湖縣馬公市中華路326號,23.570186868243,119.58098543679,NP100-3,合作場所,,
288941870,合作社,有限責任澎湖縣馬公市山水里自來水公用合作社,06-9951338,澎湖縣馬公市山水里140之2號,23.517917775544,119.59259245723,NP100-3,合作場所,,
288941855,合作社,有限責任國立馬公高級中學員生消費合作社,06-9270522-82,澎湖縣馬公市中華路369號,23.571474391676,119.58045612947,NP100-3,合作場所,,
288941884,合作社,有限責任澎湖縣機關學校員工(生)消費合作社聯合社,06-9275340,澎湖縣馬公市林森路36號,23.573708452229,119.57737213501,NP100-3,合作場所,,
288941888,合作社,有限責任國立澎湖高級海事水產職業學校員生消費合作社,06-9260550,澎湖縣馬公市民族路63號,23.570451756422,119.56492767019,NP100-3,合作場所,,
288941901,合作社,有限責任行政院農業委員會水產試驗所澎湖海洋生物研究中心員工消費合作社,06-9277010,澎湖縣馬公市興港北街8號,23.566705127324,119.57064034432,NP100-3,合作場所,,
288940652,合作社,有限責任基隆市立中山國民中學員生消費合作社,,文化路162號,,,,,,
288938012,合作社,有限責任基隆市正濱國民小學員生消費合作社,,本校,,,,,,
288939176,合作社,有限責任基隆市中和國民小學員生合作社,02-24371751,基隆市中和路六十四號,25.146162105242,121.72038162855,NP100-3,合作場所,,
288939186,合作社,"有限責任基隆市  合作社",02-24621515,基隆市中正路391號101室,25.150668520021,121.76534100989,NP100-3,合作場所,,
288939204,合作社,有限責任基隆市中興國民小學員生消費合作社,02-24225038,基隆市信二路40號,25.128928107292,121.75798109417,NP100-3,合作場所,,
288939206,合作社,保証責任基隆市林業生產合作社,02-24271136,基隆市信二路三0三號五樓,25.131090467222,121.74584752333,NP100-3,合作場所,,
288939231,合作社,有限責任基隆市立建德國民中學員生消費合作社,02-24336447,基隆市安和1街29號,,,,,,
288939245,合作社,有限責任基隆市立中山高級中學員生消費合作社,02-24232701,基隆市文化路一六二號,25.15416040683,121.73065978998,NP100-3,合作場所,,
288939247,合作社,"有限責任基隆市西定國民小學員生 合作社",02-24223856,基隆市新西街一號,25.136478305091,121.7322350223,NP100-3,合作場所,,
288939249,合作社,有限責任基隆市立八斗高級中學員生消費合作社,02-24692366,基隆市新豐街100號,25.140058931992,121.78850135406,NP100-3,合作場所,,
288939254,合作社,有限責任基隆市立暖暖高級中學員生消費合作社,02-24575534,基隆市暖中路112號,25.107929880481,121.73760419484,NP100-3,合作場所,,
288939259,合作社,有限責任國立基隆女子高級中學員生消費合作社,02-24252891,基隆市東信路324號,25.129341236893,121.75947929451,NP100-3,合作場所,,
288939292,合作社,有限責任基隆市果菜運銷合作社,02-24316681,基隆市麥金路127巷8號,25.120311553358,121.72065272495,NP100-3,合作場所,,
288939200,合作社,保證責任基隆市第一倉庫利用合作社,02-24224064,基隆市信二路303號3樓,25.131090467222,121.74584752333,NP100-3,合作場所,,
288939190,合作社,有限責任基隆市立中正國民中學員生消費合作社,02-24282191,基隆市中船路36巷59號,25.135098904811,121.75371713326,NP100-3,合作場所,,
288939193,合作社,有限責任基隆市信義國民小學員生消費合作社,02-24289102,基隆市仁二路135號,25.127488192904,121.74679612561,NP100-3,合作場所,,
288939210,合作社,有限責任基隆市立銘傳國民中學員生消費合作社,02-24223120,基隆市劉銘傳路132號,25.123721361571,121.750847035,NP100-3,合作場所,,
288939203,合作社,"保證責任基隆市  合作社",02-24224064,基隆市信二路303號3樓,25.131090467222,121.74584752333,NP100-3,合作場所,,
288939207,合作社,有限責任基隆市人人計程車運輸合作社,02-24223210,基隆市信義區深美街176號1樓,25.136411964372,121.77924732145,NP100-3,合作場所,,
288939220,合作社,有限責任基隆市瑪陵國民小學員生消費合作社,02-24565663,基隆市大成街一號,25.109861147801,121.68988988958,NP100-3,合作場所,,
288939228,合作社,有限責任基隆市立安樂高級中學員生消費合作社,02-24236600#28,基隆市安一路360號,25.131540301611,121.73731267146,NP100-3,合作場所,,
288939232,合作社,有限責任基隆市立武崙國民中學員生消費合作社,02-24342456,基隆市安樂區武崙街205號,25.137574390374,121.70643100328,NP100-3,合作場所,,
288939244,合作社,有限責任基隆市德和國民小學員生消費合作社,02-24278095,基隆市文化路164號,25.155106459625,121.73023117738,NP100-3,合作場所,,
288939262,合作社,有限責任基隆市立明德國民中學員生合作社,02-24561274,基隆市東新街20號,25.093620159712,121.71548316281,NP100-3,合作場所,,
288939275,合作社,有限責限國立基隆高級中學員生消費合作社,02-24582051,基隆市源遠路20號,25.10768346635,121.73291776374,NP100-3,合作場所,,
288939265,合作社,有限責任基隆市長樂國民小學員生消費合作社,02-24322765,基隆市樂利三街30巷123號,25.12604173483,121.71161873118,NP100-3,合作場所,,
288939264,合作社,"有限責任基隆市  學校員生合作社",02-24567126,基隆市東新街二十二號,25.094866646565,121.71728376712,NP100-3,合作場所,,
288939267,合作社,有限責任基隆市立正濱國民中學員生消費合作社,02-24631490,基隆市正榮街八十八號,25.146231081661,121.76291328704,NP100-3,合作場所,,
288939278,合作社,有限責限國立基隆高級海事職業學校員生消費合作社,02-24633655,基隆市祥豐街246號,25.148029086844,121.77147693022,NP100-3,合作場所,,
288939294,合作社,有限責任基隆市基隆計程車運輸合作社,02-24652494,基隆市龍安街314號,25.121032132808,121.74190057012,NP100-3,合作場所,,
288940787,合作社,有限責任新竹市議會員工消費合作社,03-5213281,新竹市中正路122號,24.808352782291,120.96771623279,NP100-3,合作場所,,
288940840,合作社,有限責任法務部矯正署新竹監獄消費合作社,03-5221861,新竹市延平路一段108號,24.80404795722,120.95895202327,NP100-3,合作場所,,
288940851,合作社,有限責任新竹市厚食聚落農食合作社,03-6669582,新竹市東區關新二街96號,24.785837403813,121.01816341228,NP100-3,合作場所,,
288940847,合作社,有限責任新竹市建華國民中學員生消費合作社,03-5263349,新竹市東區學府路2號,24.793842670476,120.97679762951,NP100-3,合作場所,,
288940886,合作社,有限責任新竹市立三民國民中學員生消費合作社,03-5423206,新竹市自由路95巷15號,24.813942549794,120.98064327321,NP100-3,合作場所,,
288938868,合作社,"保證責任嘉義市  生產合作社","(05) 2761310",嘉義市東區嘉義市林森東路367之45號,,,,,,
288938842,合作社,有限責任嘉義市垂楊國民小學員生消費合作社,05-2853151,嘉義市垂陽路605號,,,,,,
288938837,合作社,有限責任嘉義市地政事務所員工消費合作社,05-2251179,嘉義市國華街245號8樓,23.479230001556,120.44833995935,NP100-3,合作場所,,
288938855,合作社,有限責任嘉義市東區勞工消費合作社,,嘉義市彌陀路167號,23.467070006521,120.46655995974,NP100-3,合作場所,,
288938879,合作社,有限責任台灣省自來水股份有限公司第五區管理處員工社,,嘉義市民權路293號,23.483090005185,120.45523996372,NP100-3,合作場所,,
288938899,合作社,有限責任國立嘉義高級家事職業學校員生消費合作社,05-2259640#1352,嘉義市體育路7號,,,,,,
288938883,合作社,嘉義縣育人國小社,,嘉義市港坪里36-4號,23.473170006485,120.42258995105,NP100-3,合作場所,,
288938897,合作社,"有限責任嘉義市  學校員生合作社",05-2860885,嘉義市重慶路51號,23.465249999596,120.43794995941,NP100-3,合作場所,,
288937684,合作社,省立嘉義師專附小員生社,,,,,,,,
288938827,合作社,有限責任嘉義市北園國民小學員生消費合作社,05-2371330,嘉義市北社尾168號,,,,,,
288938837,合作社,有限責任嘉義市地政事務所員工消費合作社,05-2251179,嘉義市國華街245號8樓,23.479230001556,120.44833995935,NP100-3,合作場所,,
288938842,合作社,有限責任嘉義市垂楊國民小學員生消費合作社,05-2853151,嘉義市垂陽路605號,,,,,,
288938848,合作社,有限責任嘉義市立南興國民中學員生消費合作社,05-2224383,嘉義市宣信街182號,23.463100001019,120.46453996696,NP100-3,合作場所,,
288938851,合作社,保證責任嘉義市合作社聯合社,"(05) 2222285","嘉義市東區嘉義市公明路338 號",,,,,,
288938855,合作社,有限責任嘉義市東區勞工消費合作社,,嘉義市彌陀路167號,23.467070006521,120.46655995974,NP100-3,合作場所,,
288938859,合作社,"有限責任嘉義市  機關員工合作社",,嘉義市忠孝路275號,23.487680005899,120.45252996143,NP100-3,合作場所,,
288938879,合作社,有限責任台灣省自來水股份有限公司第五區管理處員工社,,嘉義市民權路293號,23.483090005185,120.45523996372,NP100-3,合作場所,,
288938883,合作社,嘉義縣育人國小社,,嘉義市港坪里36-4號,23.473170006485,120.42258995105,NP100-3,合作場所,,
288938893,合作社,保證責任嘉義市養羊生產合作社,"(05) 2166181",嘉義市西區世賢路4段354號,23.463030003777,120.44947995694,NP100-3,合作場所,,
288938829,合作社,有限責任台灣省菸酒公賣局嘉義菸葉廠員工社,,嘉義市北興街460號,23.488830003343,120.43280995672,NP100-3,合作場所,,
288938868,合作社,"保證責任嘉義市  生產合作社","(05) 2761310",嘉義市東區嘉義市林森東路367之45號,,,,,,
288938894,合作社,保證責任嘉義市第二合作社,"(05) 2830506",嘉義市西區嘉義市民生南路466巷3號,,,,,,
288938897,合作社,"有限責任嘉義市  學校員生合作社",05-2860885,嘉義市重慶路51號,23.465249999596,120.43794995941,NP100-3,合作場所,,
288938899,合作社,有限責任國立嘉義高級家事職業學校員生消費合作社,05-2259640#1352,嘉義市體育路7號,,,,,,
288951225,合作社,有限責任中央研究院員工消費合作社,02-27899716,台北南港區研究院路二段128號,,,,,,
288951238,合作社,有限責任勞動部員工消費合作社,02-85902794,台北市大同區延平北路二段83號9樓,25.056141183563,121.51173287521,NP100-3,合作場所,,
288951244,合作社,有限責任中央機關聯合辦公大樓(南棟)員工消費合作社,,台北市徐州路5號B1,25.042024071131,121.51948684657,NP100-3,合作場所,,
288945293,合作社,台北市德蘭儲蓄互助社,,,,,,,,
288945317,合作社,有限責任金融監督管理委員會證券期貨局員工消費合作社,87735100,,,,,,,
288945760,合作社,有限責任教育部員工消費合作社,77366054,台北市中山南路5號,25.042537346955,121.51905754607,NP100-3,合作場所,,
288945762,合作社,有限責任立法院員工消費合作社,02-23585474,台北市中正區中山南路1號,25.043965854631,121.51958647816,NP100-3,合作場所,,
288945765,合作社,有限責任財政部財稅資訊大樓員工消費合作社,02-27631833,台北市信義區忠孝東路四段547號,25.041494916982,121.56214575721,NP100-3,合作場所,,
288945417,合作社,保證責任臺北市萬華區合作社,23883805,,,,,,,
288945517,合作社,保證責任臺北市站前地下街場地利用合作社,23751577,,,,,,,
288945558,合作社,有限責任台北市全聯計程車運輸合作社,02-2586-8859,,,,,,,
288945628,合作社,有限責任中央銀行員工消費合作社,23571592,10066臺北市中正區南海路1號2樓,,,,,,
288945651,合作社,有限責任台北市吉利計程車運輸合作社,02-23931636,10642臺北市大安區杭州南路2段61之16號,,,,,,
288945657,合作社,有限責任台北市優良計程車運輸合作社,2893-7531,11244臺北市北投區公館路211號,,,,,,
288945783,合作社,有限責任總統府員工消費合作社,23206231,台北市重慶南路一段122號,25.039965822714,121.51245842194,NP100-3,合作場所,,
288946279,合作社,有限責任台北市第一長期照護服務勞動合作社,82192253,新北市新店區中正路523號2樓,24.985191768537,121.53345850987,NP100-3,合作場所,,
288946290,合作社,台北市樂活儲蓄互助社,,新北市永和區中正路649號10樓之2,25.010069662735,121.51515919544,NP100-3,合作場所,,
288950403,合作社,有限責任國立臺灣大學員生消費合作社,02-23622681,臺北市大安區羅斯福路4段1號,25.010570043284,121.5374486082,NP100-3,合作場所,,
288950402,合作社,有限責任臺北市七信消費合作社,02-23892273,臺北市大安區羅斯福路3段285號12樓之2,25.017835982278,121.5314534405,NP100-3,合作場所,,
288950390,合作社,有限責任台北市機關勞務勞動合作社,,臺北市大同區昌吉街55號2樓209室,25.066014927859,121.51560822604,NP100-3,合作場所,,
288950393,合作社,有限責任臺北市立啟聰學校員生消費合作社,25919943,臺北市大同區重慶北路3段320號,25.074697831301,121.51358912912,NP100-3,合作場所,,
288946279,合作社,有限責任台北市第一長期照護服務勞動合作社,82192253,新北市新店區中正路523號2樓,24.985191768537,121.53345850987,NP100-3,合作場所,,
288946290,合作社,台北市樂活儲蓄互助社,,新北市永和區中正路649號10樓之2,25.010069662735,121.51515919544,NP100-3,合作場所,,
288950415,合作社,有限責任台北市松美計程車運輸合作社,2767-1133,臺北市松山區塔悠路163號,25.055496220069,121.56994147436,NP100-3,合作場所,,
288950414,合作社,有限責任臺北市立中崙高級中學員生消費合作社,27535316-401,臺北市松山區八德路4段101號,25.048704750008,121.56106919209,NP100-3,合作場所,,
288950419,合作社,保證責任台北市松山區民生東路新社區合作社,2767-4380,臺北市松山區民生東路5段233號3樓,25.059321707661,121.56749276446,NP100-3,合作場所,,
288946971,合作社,有限責任經濟部水利署(台北)員工消費合作社,02-3707300,臺北市大安區信義路3段41之3號,25.033766063643,121.5353702221,NP100-3,合作場所,,
288946951,合作社,有限責任陽信商業銀行員工消費合作社,2820-8166#865,臺北市北投區石牌路1段90號,25.113825169947,121.51192866943,NP100-3,合作場所,,
288946935,合作社,有限責任臺灣新光商業銀行臺北員工消費合作社,87587288*7598,臺北市信義區松仁路36號5樓,25.038792756653,121.56782315225,NP100-3,合作場所,,
288946914,合作社,有限責任台北市立美術館員工消費合作社,25957656分機735,臺北市中山區中山北路3段181號,25.072443838299,121.52463694037,NP100-3,合作場所,,
288946933,合作社,有限責任國立國父紀念館員工消費合作社,,臺北市信義區仁愛路4段505號,25.039513917919,121.56025752268,NP100-3,合作場所,,
288946917,合作社,有限責任臺北市公寓大廈管理服務業勞動合作社,22400409,臺北市中山區南京西路1-1號6樓,25.052535042619,121.52181378273,NP100-3,合作場所,,
288946923,合作社,有限責任行政院環境保護署員工消費合作社,23117722-2931,臺北市中正區中華路1段83號,25.038503718676,121.50770156999,NP100-3,合作場所,,
288946989,合作社,有限責任臺北市公寓大廈暨社區經營維護勞動合作社,27617811,臺北市松山區八德路4段678號9樓,25.049871623827,121.57641952943,NP100-3,合作場所,,
288946987,合作社,有限責任台北市大文山計程車運輸合作社,29350011,臺北市文山區萬隆街50-2號,25.000648606877,121.53757443685,NP100-3,合作場所,,
288946977,合作社,有限責任台北市種子清潔勞動合作社,,"臺北市文山區指南路2段64號 政治大學莊敬5舍5101室",24.987419225746,121.57650426021,NP100-3,合作場所,,
288946997,合作社,有限責任臺北市立華江高級中學員生消費合作社,02-23019946*520,臺北市萬華區西藏路213號,25.028526496286,121.49616874712,NP100-3,合作場所,,
288947590,合作社,有限責任中央聯合辦公大樓北棟員工消費合作社,23432614,100台北市濟南路一段二之二號B1,,,,,,
288947588,合作社,保證責任臺北市大安區合作社,23214482,10061臺北市大安區新生南路1段148號10樓,,,,,,
288947604,合作社,有限責任臺北市立景美女子高級中學員生消費合作社,02-29368847*252,11660臺北市文山區木新路3段312號,,,,,,
288947591,合作社,有限責任臺北市第一信用合作社員工消費合作社,25575151-2510,103臺北市大同區延平北路2段133號2樓,,,,,,
288947598,合作社,有限責任台北市陽明山計程車運輸合作社,02-28922096,11268臺北市北投區大業路529-5號,,,,,,
288947753,合作社,有限責任交通部中華郵政股份有限公司員工聯合消費合作社,23419496,台北市愛國東路246號8樓,25.031598559526,121.52620526699,NP100-3,合作場所,,
288948733,合作社,有限責任臺北市原住民清潔環保工程勞動合作社,23068268,臺北市萬華區和平西路3段353之1號1樓,25.035643753614,121.4919684043,NP100-3,合作場所,,
288948715,合作社,有限責任臺北市永康病患照顧服務員勞動合作社,25552262,臺北市大同區重慶北路2段73巷27號3樓,25.056189908131,121.51480758043,NP100-3,合作場所,,
288948695,合作社,有限責任臺北市智立勞動合作社,2894-3258,臺北市北投區公?路340巷20號,,,,,,
288948679,合作社,有限責任臺北市立中山女子高級中學員生消費合作社,25073148*741,臺北市中山區長安東路2段141號,25.048531573636,121.53716137196,NP100-3,合作場所,,
288948694,合作社,有限責任臺北市立麗山高級中學員生消費合作社,2657-0435*409,臺北市內湖區環山路2段100號,25.084112055286,121.57792781441,NP100-3,合作場所,,
288948680,合作社,有限責任華泰商業銀行員工消費合作社,02-27525252-613,臺北市中山區長安東路二段246號,25.048175529113,121.54311180571,NP100-3,合作場所,,
288948683,合作社,有限責任國家表演藝術中心國家兩廳院員工消費合作社,33939977,臺北市中正區中山南路21之1號,25.034678673332,121.52162698735,NP100-3,合作場所,,
288948735,合作社,有限責任台北市地下社造勞動合作社,,臺北市萬華區萬大路137巷16號,25.029017425887,121.50132709809,NP100-3,合作場所,,
288951089,合作社,保證責任臺北市中正區合作社,23672992,10088臺北市中正區羅斯福路三段76號2樓,,,,,,
288951088,合作社,有限責任監察院員工消費合作社,234131883-122,10051臺北市中正區忠孝東路1段2號,,,,,,
288951087,合作社,有限責任臺北市立第一女子高級中學員生消費合作社,02-23898568*326,10045臺北市中正區重慶南路1段165號,,,,,,
288951098,合作社,有限責任臺北市立松山高級工農職業學校員生消費合作社,27226616*116,11060臺北市信義區忠孝東路五段236號15號,,,,,,
288951097,合作社,有限責任國立臺灣師範大學附屬高級中學員生消費合作社,02-27083826,10658臺北市大安區信義路3段143號,,,,,,
288951092,合作社,保證責任臺北市建成社區合作社,02-25594646,10353臺北市大同區南京西路25巷18之4號2樓,,,,,,
288951100,合作社,有限責任臺北市成功計程車運輸合作社,02-27458688,11087臺北市信義區松隆路337號,,,,,,
288951225,合作社,有限責任中央研究院員工消費合作社,02-27899716,台北南港區研究院路二段128號,,,,,,
288951238,合作社,有限責任勞動部員工消費合作社,02-85902794,台北市大同區延平北路二段83號9樓,25.056141183563,121.51173287521,NP100-3,合作場所,,
288951244,合作社,有限責任中央機關聯合辦公大樓(南棟)員工消費合作社,,台北市徐州路5號B1,25.042024071131,121.51948684657,NP100-3,合作場所,,
288951092,合作社,保證責任臺北市建成社區合作社,02-25594646,10353臺北市大同區南京西路25巷18之4號2樓,,,,,,
288951090,合作社,有限責任台北市電信行通大樓機關員工消費合作社,3316-6123,10092臺北市大安區愛國東路35號地下1樓,,,,,,
288946279,合作社,有限責任台北市第一長期照護服務勞動合作社,82192253,新北市新店區中正路523號2樓,24.985191768537,121.53345850987,NP100-3,合作場所,,
288951097,合作社,有限責任國立臺灣師範大學附屬高級中學員生消費合作社,02-27083826,10658臺北市大安區信義路3段143號,,,,,,
288945760,合作社,有限責任教育部員工消費合作社,77366054,台北市中山南路5號,25.042537346955,121.51905754607,NP100-3,合作場所,,
288945762,合作社,有限責任立法院員工消費合作社,02-23585474,台北市中正區中山南路1號,25.043965854631,121.51958647816,NP100-3,合作場所,,
288945765,合作社,有限責任財政部財稅資訊大樓員工消費合作社,02-27631833,台北市信義區忠孝東路四段547號,25.041494916982,121.56214575721,NP100-3,合作場所,,
288945783,合作社,有限責任總統府員工消費合作社,23206231,台北市重慶南路一段122號,25.039965822714,121.51245842194,NP100-3,合作場所,,
288947588,合作社,保證責任臺北市大安區合作社,23214482,10061臺北市大安區新生南路1段148號10樓,,,,,,
288947590,合作社,有限責任中央聯合辦公大樓北棟員工消費合作社,23432614,100台北市濟南路一段二之二號B1,,,,,,
288947591,合作社,有限責任臺北市第一信用合作社員工消費合作社,25575151-2510,103臺北市大同區延平北路2段133號2樓,,,,,,
288947598,合作社,有限責任台北市陽明山計程車運輸合作社,02-28922096,11268臺北市北投區大業路529-5號,,,,,,
288947604,合作社,有限責任臺北市立景美女子高級中學員生消費合作社,02-29368847*252,11660臺北市文山區木新路3段312號,,,,,,
288950359,合作社,有限責任臺北市立興雅國民中學員生消費合作社,02-27253243,臺北市信義區松德路168巷15號,25.036437558668,121.57235462918,NP100-3,合作場所,,
288950403,合作社,有限責任國立臺灣大學員生消費合作社,02-23622681,臺北市大安區羅斯福路4段1號,25.010570043284,121.5374486082,NP100-3,合作場所,,
288950373,合作社,有限責任臺北市勞動力援助勞動合作社,28210344,臺北市北投區明德路333巷33號5樓,25.116430818428,121.51837682156,NP100-3,合作場所,,
288950390,合作社,有限責任台北市機關勞務勞動合作社,,臺北市大同區昌吉街55號2樓209室,25.066014927859,121.51560822604,NP100-3,合作場所,,
288950414,合作社,有限責任臺北市立中崙高級中學員生消費合作社,27535316-401,臺北市松山區八德路4段101號,25.048704750008,121.56106919209,NP100-3,合作場所,,
288950415,合作社,有限責任台北市松美計程車運輸合作社,2767-1133,臺北市松山區塔悠路163號,25.055496220069,121.56994147436,NP100-3,合作場所,,
288950419,合作社,保證責任台北市松山區民生東路新社區合作社,2767-4380,臺北市松山區民生東路5段233號3樓,25.059321707661,121.56749276446,NP100-3,合作場所,,
288947753,合作社,有限責任交通部中華郵政股份有限公司員工聯合消費合作社,23419496,台北市愛國東路246號8樓,25.031598559526,121.52620526699,NP100-3,合作場所,,
288945350,合作社,有限責任高雄市杉林大愛縫紉生產合作社,,,,,,,,
288945513,合作社,有限責任國立鳳山高級中學員生消費合作社,,,,,,,,
288945514,合作社,有限責任高雄市育成照顧服務勞動合作社,,,,,,,,
288945485,合作社,有限責任高雄市國立中山大學附屬國光高級中學員生消費合作社,3603619,,,,,,,
288945434,合作社,有限責任高雄市立左營高級中學員生消費合作社,,,,,,,,
288949228,合作社,有限責任國立鳳新高級中學員生消費合作社,,高雄市鳳山區新富路257號,22.613420303819,120.34318760631,NP100-3,合作場所,,
288949227,合作社,有限責任高雄市立鳳西國民中學員生消費合作社,07-7419001,高雄市鳳山區光華路69號,22.620756756062,120.35329361008,NP100-3,合作場所,,
288949221,合作社,有限責任高雄市苓雅區大仁國民中學員生消費合作社,7114302,高雄市苓雅區建國一路148號,22.632942187614,120.32943271469,NP100-3,合作場所,,
288949226,合作社,有限責任高雄市立中山高級中學員生消費合作社,3616500,高雄市藍田里藍昌路416號,22.729484944615,120.29221219783,NP100-3,合作場所,,
288949223,合作社,有限責任高雄市苓雅區四維國民小學員生消費合作社,07-3305903,高雄市苓雅區青年一路103號,22.623091872067,120.31265267587,NP100-3,合作場所,,
288949222,合作社,有限責任高雄市苓雅區公所員工消費合作社,07-3322351,高雄市苓雅區民權一路85號4樓,22.621778135828,120.31215030982,NP100-3,合作場所,,
288947455,合作社,有限責任私立高雄醫學大學附設中和紀念醫院員工消費合作社,07-3121101*5132,高雄市三民區自由一路100號,22.647121784888,120.31016914884,NP100-3,合作場所,,
288947462,合作社,有限責任高雄市前鎮區光華國民中學員生消費合作社,722-2622*715,高雄市前鎮區和平二路170號,22.610829690475,120.32294376182,NP100-3,合作場所,,
288947458,合作社,有限責任高雄市前金區七賢國民中學員生消費合作社,2810946*37,高雄市前金區河南二路196號,22.632246518933,120.28742719403,NP100-3,合作場所,,
288948525,合作社,有限責任臺中市照顧服務勞動合作社,04-22962525,臺中市北區404臺中市北區文昌一街17號2樓,,,,,,
288948529,合作社,有限責任臺中市肉品市場員工消費合作社,04-22335092-11,臺中市北區建成里興進路1號,24.155513934809,120.70010699442,NP100-3,合作場所,,
288948524,合作社,保證責任臺中市合作社聯合社,04-22222848,臺中市中區臺中市中區成功路168號,,,,,,
288950261,合作社,有限責任臺中市中航農業生產合作社,0920-327233,臺中市沙鹿區西勢里中航路一段550巷19號,24.260462681823,120.59872022268,NP100-3,合作場所,,
288950262,合作社,有限責任臺中市綠農聚落生產合作社,0910-457121,臺中市清水區臺中市清水區高南里高美路450號,,,,,,
288948575,合作社,有限責任臺中市全國通計程車運輸合作社,04-23714433,臺中市西區臺中市西區南屯路一段99號,,,,,,
288948657,合作社,保證責任台中縣豐原花卉運銷合作社,,臺中縣神岡鄉社南村中山路303號,24.247676118355,120.69134815646,NP100-3,合作場所,,
288950500,合作社,有限責任臺南市大成計程車運輸合作社,,臺南市安南區義安街128巷20號,23.032393373208,120.19573064016,NP100-3,合作場所,,
288950526,合作社,保證責任臺南市佳里果菜生產合作社,06-7891861,臺南市佳里區龍安里12鄰111之27號,23.122708842768,120.16405572503,NP100-3,合作場所,,
288950528,合作社,有限責任台南市立延平國民中學員生消費合作社,,臺南市公園路750號,23.009436735123,120.21068241022,NP100-3,合作場所,,
288950546,合作社,有限責任科技部南部科學工業園區管理局員工消費合作社,,臺南市新市區南科三路22號,23.101411409998,120.28200685395,NP100-3,合作場所,,
288950537,合作社,保證責任台南市官田宏美農產品加工生產合作社,,臺南市官田區南部里三結義41-11號,23.208438413045,120.31288541154,NP100-3,合作場所,,
288950542,合作社,保證責任臺南市無米樂創意特色產業生產合作社,,臺南市後壁區墨林里10鄰菁寮292號,23.379176939014,120.33829550314,NP100-3,合作場所,,
288950565,合作社,保證責任臺南市新豐區果菜生產合作社,0932507341,臺南市關廟區官崙街68號,22.899904925808,120.35141120167,NP100-3,合作場所,,
288951353,合作社,保證責任臺南市北門漁產生產合作社,06-7821800,嘉義縣義竹鄉義竹工業區義工三路3號,,,,,,
288950531,合作社,有限責任臺南市楠西福農果菜運銷合作社,,臺南市北區北園街158之1號,23.013213051242,120.22177410161,NP100-3,合作場所,,
288950539,合作社,保證責任臺南市將軍蔬果生產合作社,06-7945547,臺南市將軍區長榮里165-16號,23.187984073119,120.16077242337,NP100-3,合作場所,,
288950545,合作社,有限責任臺南市甘藷生產合作社,06-5987165,臺南市新化區中正路127巷31號,23.027187218408,120.30582766151,NP100-3,合作場所,,
288950554,合作社,保證責任台南市太康有機農業生產合作社,,臺南市柳營區義士路三段121號,23.290381068015,120.34313336851,NP100-3,合作場所,,
288950566,合作社,保證責任臺南市第八養豬生產合作社,06-5701669,臺南市麻豆區埤頭里26-6號,23.191714630233,120.22510565519,NP100-3,合作場所,,
288948568,合作社,有限責任臺南市立和順國民中學員生消費合作社,06-3551440,臺南市安南區安和路五段84巷66號,23.066148270602,120.22049016394,NP100-3,合作場所,,
288946585,合作社,有限責任桃園市三光五月桃生產合作社,"03-3912660 , 0915-268335",桃園市復興區三光里武道能敢7鄰26-5號,24.662172973175,121.35535976527,NP100-3,合作場所,,
288946588,合作社,有限責任桃園市原住民行銷管理勞動合作社,03-2289440,桃園市桃園區宏昌六街164號2樓,24.987320378389,121.29309802733,NP100-3,合作場所,,
288949352,合作社,有限責任彰化縣立彰泰國民中學員生消費合作社,04-7369676,500彰化市下廓里自強路357號,,,,,,
288947008,合作社,有限責任新北市大江計程車運輸合作社,02-22672277,臺北縣三重市長元街75之2號1樓,25.06662028884,121.50312088702,NP100-3,合作場所,,
288947014,合作社,有限責任臺北縣中和市興南國民小學員生消費合作社,29442853,臺北縣中和市興南路一段135巷24號,24.986730085563,121.5091276611,NP100-3,合作場所,,
288947021,合作社,有限責任新北市正豐計程車運輸合作社,22669161、226653,臺北縣士城市金城路三段237-1號,24.989819169098,121.47119272807,NP100-3,合作場所,,
288947028,合作社,有限責任新北市廣興計程車運輸合作社,29173816,臺北縣新店市中正路344號一樓,24.975218349579,121.53649836687,NP100-3,合作場所,,
288947033,合作社,有限責任新北市櫻華計程車運輸合作社,02-29181099,臺北縣新店市民族路58號,24.978595262151,121.53978123956,NP100-3,合作場所,,
288947031,合作社,有限責任新北市北聯計程車運輸合作社,29182234,臺北縣新店市北新路三段40號,24.97976714636,121.54232114553,NP100-3,合作場所,,
288947032,合作社,有限責任新北市吉利計程車運輸合作社,0800231163，02-2,臺北縣新店市安祥路104巷11弄18號9樓,24.963744862046,121.48090441388,NP100-3,合作場所,,
288947045,合作社,有限責任新北市全聯計程車運輸合作社,02-86887288,臺北縣樹林市中正路248巷8號,25.007688976556,121.4181553334,NP100-3,合作場所,,
288947068,合作社,保證責任台灣省雞蛋運銷合作社,,臺南市公園路128號7樓之8,,,,,,
288947801,合作社,保證責任台灣省嘉義果菜運銷合作社,"05-2375670 , 05-2375680",嘉義市西區埤竹路50號,23.490561241242,120.39669509463,NP100-3,合作場所,,
288948366,合作社,有限責任臺灣區第一資源回收物運銷合作社,03-4917901,桃園市國際路二段601號,25.007917644409,121.28553268248,NP100-3,合作場所,,
288948738,合作社,有限責任新北市大新莊計程車運輸合作社,2202-0139,臺北縣24262新莊市新樹路115之2號,25.026673102876,121.43754520582,NP100-3,合作場所,,
288949380,合作社,有限責任行政院各部會中興地區機關暨臺灣省政府聯合員工消費合作社,049-2332851,南投縣南投市光華十路2號,23.949776643872,120.69314620659,NP100-3,合作場所,,
288948773,合作社,有限責任新北市大富計程車運輸合作社,02-29195311,臺北縣板橋市南雅南路2段3號,25.002981282008,121.45459619598,NP100-3,合作場所,,
288949437,合作社,有限責任臺灣食安聯盟消費合作社,0926-856-773,台北市中山區朱崙街57號1樓,25.05005190623,121.5415432452,NP100-3,合作場所,,
288948774,合作社,有限責任新北市慶安計程車運輸合作社,02-89538105,臺北縣板橋市南雅南路2段3號1樓,25.002981282008,121.45459619598,NP100-3,合作場所,,
288949848,合作社,保證責任彰化縣大城旺來果菜生產合作社,048965899,彰化縣大城鄉上山村魚寮路481號,23.872246147783,120.3417425257,NP100-3,合作場所,,
288948777,合作社,有限責任新北市聯合計程車運輸合作社,26814000,臺北縣板橋市大觀路3段50巷75號,24.996310799073,121.43145935265,NP100-3,合作場所,,
288949847,合作社,有限責任彰化縣立二林高級中學員生消費合作社,04-8960121-45,彰化縣二林鎮中西里二城路6號,23.890303145039,120.35890565918,NP100-3,合作場所,,
288950508,合作社,有限責任新北市飛帥計程車運輸合作社,82855727-9,臺北縣蘆洲市九芎街53號,25.07856610887,121.46751369866,NP100-3,合作場所,,
288949352,合作社,有限責任彰化縣立彰泰國民中學員生消費合作社,04-7369676,500彰化市下廓里自強路357號,,,,,,
288949380,合作社,有限責任行政院各部會中興地區機關暨臺灣省政府聯合員工消費合作社,049-2332851,南投縣南投市光華十路2號,23.949776643872,120.69314620659,NP100-3,合作場所,,
288949437,合作社,有限責任臺灣食安聯盟消費合作社,0926-856-773,台北市中山區朱崙街57號1樓,25.05005190623,121.5415432452,NP100-3,合作場所,,
288949845,合作社,有限責任彰化縣私立正德高級中學員生消費合作社,04-7524109轉222,彰化市彰水路145號,,,,,,
288949862,合作社,有限責任彰化縣立和美高級中學員生消費合作社,04-7552043~227,彰化縣和美鎮西園路31號,24.113009487492,120.49355652976,NP100-3,合作場所,,
288949867,合作社,有限責任彰化縣立員林國民中學員生消費合作社,04-8324725,彰化縣員林鎮南潭路2號,23.962928627407,120.56025284989,NP100-3,合作場所,,
288949879,合作社,有限責任彰化縣立埤頭國民中學員生消費合作社,04-8922004,彰化縣埤頭鄉崙腳村中學路67號,23.880608940179,120.46049459013,NP100-3,合作場所,,
288949883,合作社,有限責任國立溪湖高級中學員生消費合作社,,彰化縣溪湖鎮湖東里大溪路二段86號,23.968019034297,120.48719191606,NP100-3,合作場所,,
288949888,合作社,有限責任彰化縣立彰安國民中學員生消費合作社,04-7270460,彰化縣彰化市中正路二段530號,24.070666454637,120.53526414582,NP100-3,合作場所,,
288949890,合作社,有限責任彰化縣彰化市大竹國民小學員生消費合作社,7381436,彰化縣彰化市彰南路二段164巷41號,24.084574530495,120.58074888578,NP100-3,合作場所,,
288949891,合作社,有限責任彰化縣彰化市忠孝國民小學員生消費合作社,(04)7523944,彰化縣彰化市忠誠路61號,24.084239315023,120.53219587238,NP100-3,合作場所,,
288949893,合作社,有限責任彰化縣立彰德國民中學員生消費合作社,04-7370737,彰化縣彰化市香山里彰南路二段512巷97號,24.080360357289,120.58953362908,NP100-3,合作場所,,
288949894,合作社,保證責任彰化縣永靖同盛果菜生產合作社,04-8241510,彰化縣永靖鄉東寧村浮圳路856號,23.922218104545,120.55828134184,NP100-3,合作場所,,
288949908,合作社,保証責任彰化縣海豐合作農場,044-8830788,彰化縣田尾鄉海豐村光榮巷151號,23.918655868098,120.49582561656,NP100-3,合作場所,,
288949922,合作社,有限責任彰化縣秀水國民中學員生消費合作社,04-7696031轉170,彰化縣秀水鄉安東村中山路202號,24.036209162958,120.50529324108,NP100-3,合作場所,,
288951231,合作社,有限責任新北市日昇計程車運輸合作社,02-23085126,台北市中正區西藏路80號,25.030476805933,121.50555639506,NP100-3,合作場所,,
288950451,合作社,有限責任法務部矯正署新店戒治所員工消費合作社,86667205,臺北縣新店市莒光路42號,24.958706061972,121.52328936123,NP100-3,合作場所,,
288950461,合作社,有限責任新北市板橋計程車運輸合作社,02-29667353,臺北縣板橋市光華街32號,25.020426797187,121.45657542494,NP100-3,合作場所,,
288950505,合作社,有限責任新北市豐聲計程車運輸合作社,22891248,臺北縣盧洲市長安街375巷35號1樓,25.0879377422,121.45569954578,NP100-3,合作場所,,
288950553,合作社,保證責任台灣省南台肉雞運銷合作社,06-6224666,臺南市柳營區士林里長榮路6段501號,23.269431633367,120.31066015173,NP100-3,合作場所,,
288951665,合作社,保證責任彰化縣菇類生產合作社,04-7630332-3,彰化縣和美鎮源埤里太平路46巷46號,24.086237168045,120.51136119907,NP100-3,合作場所,,
288951638,合作社,有限責任彰化縣立彰興國民中學員生消費合作社,7110743-160,彰化市埔西街107號,,,,,,
288951648,合作社,有限責任彰化縣二林鎮中正國民小學員生消費合作社,(04)8960145,彰化縣二林鎮建興街80號,23.897619748208,120.37074884104,NP100-3,合作場所,,
288951695,合作社,保證責任彰化縣永靖稻米果菜生產合作社,048221743,彰化縣永靖鄉東寧村東寧段354號,23.925274180435,120.56761709682,NP100-3,合作場所,,
288951671,合作社,有限責任國立員林崇實高級工業職業學校員生消費合作社,04-8361001,彰化縣員林鎮新興里育英路103號,23.961160746698,120.57529204971,NP100-3,合作場所,,
288951691,合作社,有限責任彰化縣立大村國民中學員生消費合作社,04-8528962,彰化縣大村鄉村上村中山路二段240號,23.988170927004,120.56550366192,NP100-3,合作場所,,
288951715,合作社,有限責任彰化縣田中高級中學員生消費合作社,04-8745820,彰化縣田中鎮文化街23號,23.85496768371,120.58872152496,NP100-3,合作場所,,
288951705,合作社,保證責任彰化縣綠純有機蔬果生產合作社,048890019,彰化縣溪洲鄉中山路4段200號,23.862870955724,120.50870808882,NP100-3,合作場所,,
288951708,合作社,有限責任台灣省蔗農消費合作社,02-27810443,彰化縣溪湖鎮大竹里彰水路2段762號,23.951545809447,120.48078216705,NP100-3,合作場所,,
288951709,合作社,有限責任彰化縣立溪湖國民中學員生消費合作社,8852566,彰化縣溪湖鎮彰水路四段60號,23.966874955375,120.48041698573,NP100-3,合作場所,,
288951751,合作社,有限責任國立華僑實驗高級中學員生消費合作社,02-29684131#441,新北市板橋區大觀路1段32號,25.007532494819,121.44760653599,NP100-3,合作場所,,
288951749,合作社,有限責任新北市立新莊國民中學員生消費合作社,29923252,新北市新莊區中正路211號,25.035938669941,121.45248771702,NP100-3,合作場所,,
288951747,合作社,有限責任新北市陸燕計程車運輸合作社,29788778,新北市三重區福德南路21之1號4F,25.062966737082,121.5026133144,NP100-3,合作場所,,
288951760,合作社,有限責任新北市吉將計程車運輸合作社,02-28476677,新北市蘆洲區永安南路2段28號,25.077201747015,121.46724424046,NP100-3,合作場所,,
288951759,合作社,有限責任國立空中大學員工消費合作社,22833574,新北市蘆洲區中正路172號,25.086869155372,121.46803939318,NP100-3,合作場所,,
288951762,合作社,有限責任新北市立鶯歌高級工商職業學校員生消費合作社,02-26775040,新北市鶯歌區中正三路154號,24.93928482996,121.33500315989,NP100-3,合作場所,,
288952125,合作社,保證責任台灣省肉鵝運銷合作社,04-6627636,臺中縣沙鹿鎮中棲路290號,24.249472703308,120.5397102693,NP100-3,合作場所,,
288952216,合作社,有限責任新北市長青計程車運輸合作社,25792388,臺北縣三重市中山路108號27樓,25.061081749359,121.48847651024,NP100-3,合作場所,,
288952243,合作社,有限責任新北市大板城計程車運輸合作社,82613333,臺北縣士城市中華路2段182號,24.971631835034,121.43731096948,NP100-3,合作場所,,
288952259,合作社,有限責任臺北縣立丹鳳高級中學員生消費合作社,29031928,臺北縣新莊市龍安路72號,25.021199306026,121.41616942261,NP100-3,合作場所,,
288951639,合作社,保證責任彰化縣第二果菜運銷合作社,04-7622754,彰化市平和里新平路146號,,,,,,
288948120,合作社,有限責任國立彰化高級商業職業學校員生消費合作社,04-47267517,彰化市南郭路一段326號,,,,,,
288948118,合作社,有限責任國立彰化高級中學員生消費合作社,7222079,彰化市中興路78號,,,,,,
288951646,合作社,有限責任彰化縣二林鎮中興國民小學員生消費合作社,04-8683458,彰化縣二林鎮光復路73號,23.948190196618,120.44278485535,NP100-3,合作場所,,
288951652,合作社,保證責任彰化縣瓜類果菜生產合作社,048683731,彰化縣二林鎮萬興里二溪路6段592號,23.955344368664,120.41652560207,NP100-3,合作場所,,
288951696,合作社,有限責任國立永靖高級工業職業學校員生消費合作社,04-8221810,彰化縣永靖鄉永北村永坡路101號,23.926688489297,120.54550514329,NP100-3,合作場所,,
288951758,合作社,有限責任新北市立瑞芳高級工業職業學校員生消費合作社,24972516轉205,新北市瑞芳區瑞芳街60號,25.110724805421,121.80470681031,NP100-3,合作場所,,
288948562,合作社,保證責任台灣省台中家禽運銷合作社,0422759766,臺中市太平區鵬儀路366巷1弄1號.,24.127591224171,120.73106519126,NP100-3,合作場所,,
288948127,合作社,保證責任彰化縣養雞生產合作社,04-8968600,彰化縣二林鎮八德路211號,23.905757443271,120.37206698006,NP100-3,合作場所,,
288948132,合作社,保證責任彰化縣第一稻米蔬果生產合作社,04-8966015,彰化縣二林鎮西斗里斗苑路78-1號,23.900735423024,120.40488820294,NP100-3,合作場所,,
288948146,合作社,有限責任彰化縣員林鎮員林國民小學員生消費合作社,(04)8384830,彰化縣員林鎮三民東街221號,23.960161808074,120.5792235065,NP100-3,合作場所,,
288952224,合作社,有限責任新北市合成計程車運輸合作社,29729673,臺北縣三重市福南路65巷9號5F,,,,,,
288952231,合作社,有限責任新北市敦化計程車運輸合作社,27938383,臺北縣中和市景平路38號,24.990780730994,121.5231575967,NP100-3,合作場所,,
288948156,合作社,保證責任彰化縣埤頭合作農場,04-8927325,彰化縣埤頭鄉崙子村埤頭路765號,23.900677898724,120.46753702873,NP100-3,合作場所,,
288948155,合作社,保證責任台灣省中台肉雞運銷合作社,04-8927800,彰化縣埤頭鄉大湖村中央路89之10號,23.87279134984,120.44358725377,NP100-3,合作場所,,
288948166,合作社,有限責任國立彰化女子高級中學員生消費合作社,7240042*218,彰化縣彰化市光復路62號,24.081178446131,120.54347961304,NP100-3,合作場所,,
288948167,合作社,有限責任彰化縣立彰化藝術高級中學員生消費合作社,04-7222844,彰化縣彰化市卦山路13號,24.078764513717,120.55448925722,NP100-3,合作場所,,
288948193,合作社,有限責任彰化縣立社頭國民中學員生消費合作社,8725433,彰化縣社頭鄉廣興村中興路1號,23.901475114784,120.58395518365,NP100-3,合作場所,,
288948198,合作社,有限責任彰化縣秀水鄉明正國民小學員生消費合作社,04-7692533,彰化縣秀水鄉埔崙村彰水路二段341號,24.026724273222,120.49273228575,NP100-3,合作場所,,
288945896,合作社,保證責任台灣省蜜蜂產品運銷合作社,052751366,嘉義縣竹崎鄉桃源村桃源路46號,23.476012297392,120.57615567809,NP100-3,合作場所,,
288948236,合作社,有限責任新北市廣大計程車運輸合作社,02-22468535,新北市中和區忠孝街1巷53號1樓,24.98422917286,121.50841236782,NP100-3,合作場所,,
288948234,合作社,有限責任台灣主婦聯盟生活消費合作社,02-29996122,新北市三重區重新路5段408巷18號,25.046815320238,121.4759663505,NP100-3,合作場所,,
288948232,合作社,有限責任新北市清傳高級商業職業學校員生消費合作社,02-29955535,新北市三重區五谷王北街141巷1號,25.052035809496,121.47686829483,NP100-3,合作場所,,
288948237,合作社,有限責任新北市敦南計程車運輸合作社,29415000,新北市中和區景平路38號,24.990780730994,121.5231575967,NP100-3,合作場所,,
288945814,合作社,有限責任彰化縣立和群國民中學員生消費合作社,047-350071,和美鎮美寮路一段390號,,,,,,
288948246,合作社,有限責任新北市新莊區光華國民小學員生消費合社,22058866,新北市新莊區龍安路452號,25.02290053317,121.41429542845,NP100-3,合作場所,,
288948254,合作社,有限責任新北市立泰山國民中學員生消費合作社,22977834,新北市泰山區泰林路二段498號,25.064015123438,121.42454580934,NP100-3,合作場所,,
288948253,合作社,有限責任新北市汐止區北峰國民小學員生消費合作社,02-269418147,新北市汐止區環河街1號,25.063819119999,121.63283259211,NP100-3,合作場所,,
288946205,合作社,有限責任彰化縣立溪州國民中學員生消費合作社,04-8895054,彰化縣溪州鄉溪州村中央路三段300號,23.85035794981,120.49508161481,NP100-3,合作場所,,
288946203,合作社,有限責任國立員林高級家事商業職業學校員生消費合作社,04-8320260轉255,彰化縣員林鎮中正路56號,23.950469755081,120.57649553539,NP100-3,合作場所,,
288946223,合作社,有限責任彰化縣立陽明國民中學員生消費合作社,7222263轉170,彰化縣彰化市長順街76號,24.086151966438,120.55046198742,NP100-3,合作場所,,
288946226,合作社,"保證責任台灣省蔗農 農業生產合作社",02-27810443,彰化縣溪湖鎮彰化縣溪湖鎮大竹里彰水路二段762號,,,,,,
288946243,合作社,有限責任彰化縣立福興國民中學員生消費合作社,7772009轉170,彰化縣福興鄉員鹿路二段270號,24.040964964966,120.43668365559,NP100-3,合作場所,,
288946289,合作社,有限責任新北市立林口國民中學員生消費合作社,26011014-28,新北市林口區民治路25號,25.076858234969,121.37689598168,NP100-3,合作場所,,
288946158,合作社,保證責任彰化縣西庄韭菜生產合作社,048680958,彰化縣二林鎮二溪路七段622巷121號,23.956409195825,120.43367128676,NP100-3,合作場所,,
288946174,合作社,有限責任國立彰化師範大學附屬高級工業職業學校員生消費合作社,04-7232265,彰化市和調里工校街一號,,,,,,
288946184,合作社,有限責任國立二林高級工商職業學校員生消費合作社,8965152,彰化縣二林鎮豐田里斗苑路四段500號,23.899921323627,120.37726696533,NP100-3,合作場所,,
288946198,合作社,有限責任國立北斗高級家事商業職業學校員生消費合作社,8882224,彰化縣北斗鎮學府路50號,23.878500210285,120.52207911694,NP100-3,合作場所,,
288946204,合作社,有限責任彰化縣立永靖國民中學員生消費合作社,8221929,彰化縣永靖鄉瑚璉村錫壽路123號,23.930028709485,120.55118018676,NP100-3,合作場所,,
288946244,合作社,有限責任彰化縣立鹿港國民中學員生消費合作社,04-7765586,彰化縣福興鄉橋頭村復興路78號,24.050983316128,120.4394571041,NP100-3,合作場所,,
288946263,合作社,有限責任彰化縣立鹿鳴國民中學員生消費合作社,04-7713846~19,彰化縣鹿港鎮頂草路三段167號,24.098483231835,120.46893067486,NP100-3,合作場所,,
288946272,合作社,有限責任新北市三峽區成福國民小學員生消費合作社,02-86764945,新北市三峽區溪東路213號,24.933202370024,121.4056886509,NP100-3,合作場所,,
288946274,合作社,有限責任新北市瑞隆計程車運輸合作社,29760058,新北市三重區中正南路285號,25.052199329725,121.49269001717,NP100-3,合作場所,,
288946275,合作社,有限責任新北市藍天使計程車運輸合作社,22421492,新北市中和區安邦街87號,24.996416468547,121.4970856096,NP100-3,合作場所,,
288946281,合作社,有限責任新北市立頭前國民中學員生消費合作社,02-85216600,新北市新莊區中原路2號,25.055183812519,121.45948400591,NP100-3,合作場所,,
288946285,合作社,有限責任新北市門市理貨勞動合作社,22539325,新北市板橋區富山街109巷87號3樓,25.020977490864,121.47497436206,NP100-3,合作場所,,
288946284,合作社,有限責任新北市優良計程車運輸合作社,02-27882940,新北市新莊區新泰路277巷71號4樓,25.040105476164,121.44297593282,NP100-3,合作場所,,
288946292,合作社,有限責任國立泰山高級中學員生消費合作社,22963625轉52,新北市泰山區辭修路7號,25.05771869119,121.42986652112,NP100-3,合作場所,,
288946293,合作社,有限責任新北市立淡水高級商工職業學校員生消費合作社,02-26203930轉281,新北市淡水區商工路307號,25.186759589086,121.4540261148,NP100-3,合作場所,,
288946260,合作社,保證責任彰化縣草湖果菜生產合作社,04-8861877,彰化縣芳苑鄉草湖村功湖路草湖段50號,23.957778772809,120.38069029314,NP100-3,合作場所,,
288947500,合作社,保證責任台灣省養豬生產合作社,07-6931025,高雄市湖內區民生街122號,22.878608196164,120.24865244441,NP100-3,合作場所,,
288947612,合作社,有限責任國立鹿港高級中學員生消費合作社,04-7787667,505彰化縣鹿港鎮中山路661號,,,,,,
288947801,合作社,保證責任台灣省嘉義果菜運銷合作社,"05-2375670 , 05-2375680",嘉義市西區埤竹路50號,23.490561241242,120.39669509463,NP100-3,合作場所,,
288948073,合作社,有限責任彰化縣花壇鄉花壇國民小學員生消費合作社,7862029*23,彰化縣花壇鄉長沙村學前路108號,24.026314572763,120.54320832303,NP100-3,合作場所,,
288948101,合作社,有限責任彰化縣彰化市石牌國民小學員生消費合作社,(04)7381672,彰化市石牌里田坑路一段9號,,,,,,
288948366,合作社,有限責任臺灣區第一資源回收物運銷合作社,03-4917901,桃園市國際路二段601號,25.007917644409,121.28553268248,NP100-3,合作場所,,
288946560,合作社,有限責任新北市大文山計程車運輸合作社,02-89312170,板橋市南雅西路2段76號1樓,,,,,,
288947008,合作社,有限責任新北市大江計程車運輸合作社,02-22672277,臺北縣三重市長元街75之2號1樓,25.06662028884,121.50312088702,NP100-3,合作場所,,
288947014,合作社,有限責任臺北縣中和市興南國民小學員生消費合作社,29442853,臺北縣中和市興南路一段135巷24號,24.986730085563,121.5091276611,NP100-3,合作場所,,
288947021,合作社,有限責任新北市正豐計程車運輸合作社,22669161、226653,臺北縣士城市金城路三段237-1號,24.989819169098,121.47119272807,NP100-3,合作場所,,
288947028,合作社,有限責任新北市廣興計程車運輸合作社,29173816,臺北縣新店市中正路344號一樓,24.975218349579,121.53649836687,NP100-3,合作場所,,
288947045,合作社,有限責任新北市全聯計程車運輸合作社,02-86887288,臺北縣樹林市中正路248巷8號,25.007688976556,121.4181553334,NP100-3,合作場所,,
288947032,合作社,有限責任新北市吉利計程車運輸合作社,0800231163，02-2,臺北縣新店市安祥路104巷11弄18號9樓,24.963744862046,121.48090441388,NP100-3,合作場所,,
288947031,合作社,有限責任新北市北聯計程車運輸合作社,29182234,臺北縣新店市北新路三段40號,24.97976714636,121.54232114553,NP100-3,合作場所,,
288947033,合作社,有限責任新北市櫻華計程車運輸合作社,02-29181099,臺北縣新店市民族路58號,24.978595262151,121.53978123956,NP100-3,合作場所,,
288946730,合作社,有限責任新北市計程車運輸合作社聯合社,26888899,樹林市中正路248巷16號,,,,,,
288947068,合作社,保證責任台灣省雞蛋運銷合作社,,臺南市公園路128號7樓之8,,,,,,
288949506,合作社,有限責任臺灣省嘉南製糖勞動合作社,05-3628380,嘉義縣太保市東勢里健康路163號,23.466690218538,120.29487349631,NP100-3,合作場所,,
288947841,合作社,有限責任臺灣省嘉南禽畜生產合作社,05-2893001,嘉義縣水上鄉南鄉村1鄰牛稠埔111之5號,23.413525536931,120.44128775618,NP100-3,合作場所,,
288947824,合作社,保證責任臺灣省肉品運銷合作社,05-3790108、3790358,嘉義縣朴子市中興路135號,23.459542329819,120.24314439669,NP100-3,合作場所,,
288951618,合作社,保證責任臺灣省高屏花卉運銷合作社,087933199,屏東縣鹽埔鄉彭厝村莒光路3-8號,22.744425232432,120.55043844655,NP100-3,合作場所,,
288945855,合作社,保證責任臺灣省嘉南羊乳運銷合作社,05-2377891,嘉義縣太保市過溝里嘉太工業區光復路3號,23.506379210134,120.36376152406,NP100-3,合作場所,,
288946806,合作社,有限責任臺灣省臺中區機關聯合員工消費合作社,04-22527621,臺中市南屯區博愛街80巷55號,24.153030874149,120.63333656092,NP100-3,合作場所,,
288950050,合作社,保證責任台灣區蜜寶貝蜜蜂產品運銷合作社,03-3883838,桃園市大溪區和平路37-1號,24.884811820972,121.28793129047,NP100-3,合作場所,,
288950958,合作社,保證責任台灣區亞嶸果菜運銷合作社,0932783961,高雄市小港區山明路2號,22.566791759217,120.36953324589,NP100-3,合作場所,,
288951326,合作社,保證責任台灣區鰻蝦生產合作社聯合社,05-3792938,嘉義縣朴子市四維路1段286號,23.459570445968,120.24901809148,NP100-3,合作場所,,
288952675,合作社,保證責任台灣區檸檬運銷合作社,,高雄市前鎮區中山二路2號17F之2,22.607730163175,120.30732093637,NP100-3,合作場所,,
288945776,合作社,有限責任臺灣區漁船產物保險合作社,02-25603948,台北市民生東路1段25號4樓之7,,,,,,
288949880,合作社,保證責任中華民國果菜合作社聯合社,04-8783118,彰化縣埤頭鄉新生路98巷203號,23.879214901359,120.49918234717,NP100-3,合作場所,,
288951222,合作社,有限責任測試中華民國計程車運輸合作社,0422563789,台中市,,,,,,
288952328,合作社,有限責任中華民國鹿產品運銷合作社,"06-2997261 , 06-2998070",臺南市安平區府前四街104號,22.995291868784,120.18521913232,NP100-3,合作場所,,
288952288,合作社,保證責任中華民國雞蛋運銷合作社,06-2155982,臺南市健康路1段150巷14號2樓,,,,,,
288945782,合作社,保證責任中華民國國軍軍眷住宅公用合作社,02-23147168,台北市重慶南路1段49號5樓,,,,,,
288947752,合作社,有限責任台灣綠活設計勞動合作社,02-23974035,台北市大安區信義路2段10巷3-4號,25.034462353012,121.5247703574,NP100-3,合作場所,,
288948588,合作社,有限責任台灣電子書供給合作社,04-24517250,臺中市西屯區文華路100號,24.179309623965,120.6499906444,NP100-3,合作場所,,
288948590,合作社,有限責任台灣藥物供給合作社,04-22599366,臺中市西屯區朝馬七街38號,24.165508572162,120.63539763261,NP100-3,合作場所,,
288951309,合作社,保證責任台灣兔產品運銷合作社,05-3806052,嘉義縣六腳鄉蒜南村381之3號,23.490243235623,120.29009845876,NP100-3,合作場所,,
288950292,合作社,保證責任台灣鴕鳥運銷合作社,,臺中縣大里市中興路2段671巷110號,24.115659178136,120.68701505727,NP100-3,合作場所,,
288952066,合作社,有限責任台灣怡嘉看護家事管理勞動合作社,0921-654665,臺中市潭子區頭家里得福街118號1樓,24.194629884109,120.69680982408,NP100-3,合作場所,,
288948235,合作社,有限責任台灣綠主張綠電生產合作社,0936609579,新北市三重區重新路5段408巷18號,25.046815320238,121.4759663505,NP100-3,合作場所,,
288945600,合作社,有限責任台灣全人照顧服務勞動合作社,04-22954287,,,,,,,
288948272,合作社,有限責任台灣友善書業供給合作社,"03-5641232 , 傳真03-5641236",新竹市東區安和街2巷20號,24.782089820229,121.01462944565,NP100-3,合作場所,,
288946788,合作社,有限責任台灣食在安心農產運銷合作社,0928-972265,臺中市北屯區同榮北街10號,24.198083660208,120.66245914917,NP100-3,合作場所,,
288945613,合作社,有限責任系統測試合作社,,,,,,,,
288948729,合作社,有限責任臺北市松山區健康國民小學員生消費合作社,20285047,臺北市松山區延壽街168號,25.056622186262,121.56292310279,NP100-3,合作場所,,
288948730,合作社,有限責任臺北市心藝聯合照顧服務勞動合作社,02-86918005,臺北市民權東路3段106巷3弄3號,25.061583571163,121.54514430456,NP100-3,合作場所,,
288948731,合作社,有限責任臺北市萬華區福星國民小學員生消費合作社,02-23144668,臺北市萬華區中華路一段66號,25.046344781852,121.50890654635,NP100-3,合作場所,,
288948732,合作社,有限責任臺北市立龍山國民中學員生消費合作社,23362789,臺北市萬華區南寧路46號,25.036063889896,121.50459783355,NP100-3,合作場所,,
288948723,合作社,有限責任臺北市立興福國民中學員生消費合作社,02-29342619,臺北市文山區福興路80號,25.004899301764,121.54974350169,NP100-3,合作場所,,
288948734,合作社,有限責任臺北市安泰照顧服務員勞動合作社,2735-7793,臺北市萬華區國興路1巷1號5樓,25.024607404036,121.50900190401,NP100-3,合作場所,,
288948719,合作社,有限責任臺北市大安區大安國民小學員生消費合作社,27322332,臺北市大安區臥龍街129號,25.019506627599,121.54964663021,NP100-3,合作場所,,
288948736,合作社,有限責任台北縣立八里愛心教養院員工社,,八里鄉華富山32號,,,,,,
288948737,合作社,有限責任臺北縣立光榮國民中學員生消費合作社,,臺北縣241三重市介壽路26號,25.070456015416,121.4999206517,NP100-3,合作場所,,
288948555,合作社,有限責任台灣台中看守所員工消費合作社,04-23811853,臺中市南屯區培德路11號,24.144646878433,120.59734344861,NP100-3,合作場所,,
288948739,合作社,有限責任臺北縣三峽鎮公所員工社,,臺北縣三峽鎮中山路18號,25.159088613372,121.42312909881,NP100-3,合作場所,,
288948740,合作社,有限責任臺北縣第二清潔勞動合作社,,臺北縣三峽鎮中華路44巷5號6樓.,24.930691502039,121.37180434061,NP100-3,合作場所,,
288948741,合作社,有限責任臺北縣三峽鎮大埔國民小學員生消費合作社,26712526,臺北縣三峽鎮大埔路130號,24.905743137641,121.36646440058,NP100-3,合作場所,,
288948742,合作社,有限責任臺北縣三芝鄉橫山國小社,,臺北縣三芝鄉橫山村86號,25.258893692532,121.52976496641,NP100-3,合作場所,,
288948743,合作社,有限責任台灣省損傷接骨醫藥器材供給合作社,0233086077,臺北縣三重市三民街165巷一號四樓,25.064987237622,121.48368695093,NP100-3,合作場所,,
288948744,合作社,有限責任臺北縣三重市公所員工消費合作社,29862345轉420,臺北縣三重市中山路10號,25.061081749359,121.48847651024,NP100-3,合作場所,,
288948745,合作社,有限責任臺北縣大全聯計程車運輸合作社,02-29826020,臺北縣三重市中山路33巷22號,25.061911470497,121.48548594591,NP100-3,合作場所,,
288948746,合作社,有限責任臺南市立復興國民中學員生消費合作社,06-23310754,臺南市東區裕文路62號,22.982241623623,120.24008964936,NP100-3,合作場所,,
288948747,合作社,有限責任臺北縣三重市光榮國小社,,臺北縣三重市介壽路32號,25.070927841789,121.50131781691,NP100-3,合作場所,,
288948748,合作社,有限責任台北縣首都計程車運輸合作社,,臺北縣三重市忠孝路1段10巷13號,25.071485344844,121.49149523235,NP100-3,合作場所,,
288948749,合作社,有限責任臺南市私立長榮女子高級中學員生社,,臺南市勝利路52巷26號,22.991197059496,120.21866727612,NP100-3,合作場所,,
288948750,合作社,有限責任台北縣大全計程車運輸合作社,02-295826020,臺北縣三重市集美街111號2樓,25.052876060565,121.48965341966,NP100-3,合作場所,,
288948751,合作社,有限責任臺北縣機關員工消費合作社聯合社,02-27321688,臺北縣中和市景平路634-2號,24.998544680332,121.50073537139,NP100-3,合作場所,,
288948752,合作社,有限責任行政院勞工委員會職業訓練局北區職業訓練中心員工消費合作社,,臺北縣五股鄉五權路十七號七樓,25.065943043446,121.44905485874,NP100-3,合作場所,,
288948753,合作社,有限責任臺北縣五股鄉機關聯合員工消費合作社,,臺北縣五股鄉五股村民義路1段19號,25.083246321034,121.43743093129,NP100-3,合作場所,,
288948754,合作社,有限責任臺北縣五股鄉成州國民小學員生消費合作社,02-22933613,臺北縣五股鄉成泰路三段四九三號,25.099770533764,121.45051660789,NP100-3,合作場所,,
288948755,合作社,有限責任臺北縣八里鄉公所員工社,,臺北縣八里鄉訊塘村中山路90號,25.149077893212,121.40212875533,NP100-3,合作場所,,
288948756,合作社,有限責任臺北縣土城市廣福國民小學員生消費合作社,22626782-258,臺北縣土城市字府路一段127號,,,,,,
288948757,合作社,有限責任臺北縣原住民餐飲勞動合作社,02-29635710,臺北縣土城市慶祥街59巷8號1樓,24.97276678919,121.43588099698,NP100-3,合作場所,,
288948758,合作社,有限責任臺北縣土城鄉公所員工消費合作社,,臺北縣土城鄉興城路7號,24.970997726766,121.44075856684,NP100-3,合作場所,,
288948540,合作社,有限責任臺中市立四張犁國民中學員生消費合作社,04-24210380-135,臺中市北屯區后庄路699號,24.194085777136,120.6770794038,NP100-3,合作場所,,
288948760,合作社,有限責任臺北縣土城市清水國民小學員生消費合作社,22603225,臺北縣士城市金城路二段356號,24.984401889321,121.46150835766,NP100-3,合作場所,,
288948761,合作社,有限責任臺北縣新店市雙城國民小學員生消費合作社,02-22156511~121,臺北縣新店市安康路3段322號,24.952070391322,121.48653949143,NP100-3,合作場所,,
288948762,合作社,有限責任中央印製廠員工消費合作社,02-22156789,臺北縣新店市安康路三段235號,24.950291430488,121.48781563923,NP100-3,合作場所,,
288948763,合作社,有限責任台灣省立台北仁愛之家員工社,,臺北縣新店市屈尺路83號,24.922684793419,121.54520993807,NP100-3,合作場所,,
288948764,合作社,保證責任臺北縣林業生產合作社,0939924099,臺北縣新店市廣明路356號,,,,,,
288948765,合作社,有限責任行政院水土保持局第一工程所員工消費合作社,02-22125285,臺北縣新店市精忠路10號,24.959527786521,121.53262193224,NP100-3,合作場所,,
288948766,合作社,有限責任臺北縣新莊市榮富國民小學員生消費合社,02-29980235,臺北縣新莊市中和街193號,25.051432321844,121.44739838032,NP100-3,合作場所,,
288948767,合作社,有限責任臺北縣立中平國民中學員生消費合作社,,臺北縣新莊市中平路385號.,25.053755891679,121.4445308012,NP100-3,合作場所,,
288948768,合作社,有限責任台北縣台灣電力公司台北西區營業處員工消費合作社,,臺北縣新莊市化成路135號,25.047572499641,121.46549010991,NP100-3,合作場所,,
288948769,合作社,保證責任臺東縣和平原住民營造勞動合作社,089-550310,臺東縣鹿野鄉(村)和平路79號,,,,,,
288948770,合作社,有限責任臺北縣以馬內利計程車運輸合作社,,臺北縣新莊市化成路434號.,25.051238238175,121.46608842098,NP100-3,合作場所,,
288948771,合作社,有限責任臺北縣新莊市丹鳳國小員生消費社,,臺北縣新莊市天泉路天泉一街2號,25.022880720938,121.42558865095,NP100-3,合作場所,,
288948772,合作社,有限責任臺北縣立福營國民中學員生消費合作社,02-22024787,臺北縣新莊市富國路105號,25.025323692075,121.42251047536,NP100-3,合作場所,,
288947703,合作社,有限責任南投縣竹山鎮雲林國民小學員生消費合作社,049-2654984,南投縣竹山鎮大明路666號,23.756784679691,120.67702492094,NP100-3,合作場所,,
288947701,合作社,有限責任南投縣水里鄉玉峰國民小學員生消費合作社,049-2772274,南投縣水里鄉玉峰村仁愛路3號,23.805749030778,120.83753902621,NP100-3,合作場所,,
288948775,合作社,有限責任臺北縣板橋市重慶國民小學員生消費合作社,,臺北縣板橋市和平路100號.,24.994735087764,121.46213896693,NP100-3,合作場所,,
288948776,合作社,有限責任臺北縣板橋市信義國民小學員生消費合作社,02-29567817-161,臺北縣板橋市四川路二段二四五巷六十號,24.991736587376,121.45281270703,NP100-3,合作場所,,
288947693,合作社,有限責任南投縣立埔里國民中學員生消費合作社,049-2904484,南投縣埔里鎮西安路一段193號,23.968673808294,120.96867251114,NP100-3,合作場所,,
288948778,合作社,有限責任臺北縣政府員工消費合作社,,臺北縣板橋市府中路22號,25.00974168957,121.4598472015,NP100-3,合作場所,,
288948779,合作社,有限責任臺灣土地銀行北台南分行員工社,,臺南市公園路128號之7,22.998893498888,120.20764111014,NP100-3,合作場所,,
288948780,合作社,有限責任臺北縣原住民車亮清潔勞動合作社,02-89537111,臺北縣板橋市廣權路79號,24.992449130522,121.46393152917,NP100-3,合作場所,,
288948781,合作社,有限責任臺北縣板橋市板橋國民小學員生消費合作社,29686834~179,臺北縣板橋市文化路一段23號,25.010806325317,121.45819868763,NP100-3,合作場所,,
288948782,合作社,有限責任臺北縣立江翠國民中學員生消費合作社,22518007,臺北縣板橋市松江街63號,25.028944543842,121.46843767,NP100-3,合作場所,,
288948783,合作社,有限責任臺北縣板橋市沙崙國民小學員生消費合作社,26812764轉34,臺北縣板橋市篤行路二段一三二號,24.989747230653,121.43053474712,NP100-3,合作場所,,
288948784,合作社,有限責任臺北縣板橋市溪洲國民小學員生消費合作社,26867705*65,臺北縣板橋市金門街289號,24.987323262558,121.43088282998,NP100-3,合作場所,,
288948785,合作社,有限責任臺北縣林口鄉麗林國民小學員生消費合作社,26091520,臺北縣林口鄉文化一路一段11號,25.070252079507,121.37168999917,NP100-3,合作場所,,
288948786,合作社,有限責任交通部公路總局第一區養護工程處員工消費合作社,02-86875193,臺北縣樹林市中正路212號,25.005881250962,121.42033524178,NP100-3,合作場所,,
288947687,合作社,有限責任國立暨南國際大學附屬高級中學員生消費合作社,049-2912300,南投縣埔里鄉鐵山路1之6號,23.972011810583,120.94576548087,NP100-3,合作場所,,
288948788,合作社,有限責任臺北縣樹林市文林國民小學員生消費合作社,26812626,臺北縣樹林市千歲街59號,24.997506259515,121.42610045621,NP100-3,合作場所,,
288948789,合作社,有限責任臺北縣樹林鎮公所員工社,,臺北縣樹林鎮鎮前街93號,24.990041543699,121.42448797253,NP100-3,合作場所,,
288948790,合作社,有限責任新北市原住民土木營建工程勞動合作社,02-22323962,臺北縣永和市中和路343號8樓之3,24.999790097191,121.50783559404,NP100-3,合作場所,,
288948791,合作社,保證責任臺北縣永和市潭墘社區合作社,,臺北縣永和市中正路283巷57號.,24.998953488766,121.51561391918,NP100-3,合作場所,,
288948792,合作社,保證責任臺北縣原住民第一營造勞動合作社,02-29213001,臺北縣永和市永利路155號1樓,25.003640344194,121.52470334179,NP100-3,合作場所,,
288948793,合作社,有限責任臺北縣永和市機關聯合員工消費合作社,02-29282828#260,臺北縣永和市竹林路200號,25.00917765216,121.52048355909,NP100-3,合作場所,,
288948794,合作社,有限責任臺北縣汐止市秀峰國民小學員生消費合作社,26480611,臺北縣汐止市仁愛路90號,25.062576246235,121.6615564838,NP100-3,合作場所,,
288948795,合作社,有限責任新北市冠威計程車運輸合作社,24521868,臺北縣汐止市新昌路24號,25.067694961539,121.66215888478,NP100-3,合作場所,,
288948796,合作社,有限責任臺北縣汐止市崇德國民小學員生消費合作社,86482052-13,臺北縣汐止市茄苳路158號,25.069433119625,121.66900013277,NP100-3,合作場所,,
288948797,合作社,有限責任臺北縣汐止市金龍國民小學員生消費合作社,26959941,臺北縣汐止市金龍國小,,,,,,
288948798,合作社,有限責任臺北縣汐止地政事務所員工社,,臺北縣汐止鎮仁愛路6號,24.999484454899,121.45854932036,NP100-3,合作場所,,
288948799,合作社,有限責任台灣省立新莊高級中學員生消費合作社,,臺北縣泰山鄉明志路324號,25.059163091014,121.43135324225,NP100-3,合作場所,,
288948800,合作社,有限責任臺南市南區永華國民小學員生消費合作社,06-2641457,臺南市中華西路一段二巷17號,22.963545181795,120.18412401734,NP100-3,合作場所,,
288947566,合作社,保證責任高雄縣美濃果菜生產合作社,6830555,高雄縣美濃鎮吉東里吉頂街23之5號,22.856554394238,120.54197788385,NP100-3,合作場所,,
288948802,合作社,有限責任臺北縣泰山鄉義學國民小學員生消費合作社,02-22972048#601,臺北縣泰山鄉民生路30號,24.997135911504,121.52239268363,NP100-3,合作場所,,
288948803,合作社,有限責任台灣省觀賞植物運銷合作社,,臺北縣泰山鄉漢口街33號.,25.034999258669,121.42687192599,NP100-3,合作場所,,
288948804,合作社,有限責任內政部警政署公路局員工消費合作社,02-29094111#224,臺北縣泰山鄉黎明村半山雅70之二號,25.067979844121,121.42372945965,NP100-3,合作場所,,
288948805,合作社,有限責任臺北縣淡水鎮淡水國民小學員生消費合作社,26212755轉109,臺北縣淡水鎮中山路160號,25.140880162438,121.38304814165,NP100-3,合作場所,,
288948806,合作社,有限責任臺北縣立竹圍國民中學員生消費合作社,,臺北縣淡水鎮中正東路2段145號.,25.147533510572,121.46024818868,NP100-3,合作場所,,
288948807,合作社,有限責任臺北縣淡水鎮屯山國民學校員生消費合作社,,臺北縣淡水鎮屯山里溪口五號,25.237715496639,121.44820232915,NP100-3,合作場所,,
288948808,合作社,臺北縣淡水鎮文化國校員生社,,臺北縣淡水鎮文化里真理街6號,25.173965259279,121.43738115452,NP100-3,合作場所,,
288948809,合作社,有限責任臺北縣淡水鎮興仁國民學校員生消費合作社,,臺北縣淡水鎮興仁里東路腳23號,25.216682588975,121.45490263536,NP100-3,合作場所,,
288948810,合作社,有限責任臺南市中西區成功國民小學員生消費合作社,06-2217159,臺南市中西區成功路235號,22.998719938484,120.20330238875,NP100-3,合作場所,,
288948811,合作社,有限責任臺北縣原住民泰雅園藝景觀勞務勞動合作社,02-87325514,臺北縣烏來鄉烏來村12鄰環山路75號,24.861871049428,121.54858112209,NP100-3,合作場所,,
288948812,合作社,有限責任臺北縣瑞芳鎮吉慶國民小學員生消費合作社,02-24576405,臺北縣瑞芳鎮吉安里大埔路95號,25.101274140587,121.7643605424,NP100-3,合作場所,,
288948813,合作社,有限責任臺北縣瑞芳鎮瑞柑國民小學員生消費合作社,24971009,臺北縣瑞芳鎮明燈路一段18巷13號,25.107920075859,121.82244842259,NP100-3,合作場所,,
288948814,合作社,保證責任臺北縣瑞芳鎮瓜山社區合作社,,臺北縣瑞芳鎮瓜山里金光路133號,25.106804406501,121.85385587749,NP100-3,合作場所,,
288948815,合作社,有限責任臺北縣行政院農業委員會茶業改良場文山分場員工消費合作社,26651801-2,臺北縣石碇鄉格頭村北宜路5段12號,24.956091207745,121.630903103,NP100-3,合作場所,,
288948816,合作社,有限責任臺北縣石門鄉老梅國民小學員生消費合作社,02-26381258,臺北縣石門鄉老梅村老梅路十號,25.289291462574,121.54455748885,NP100-3,合作場所,,
288948817,合作社,有限責任交通部台灣區國道高速公路局員工消費合作社,,臺北縣秦山鄉黎明村半雅70號,25.067977500561,121.42372814318,NP100-3,合作場所,,
288948818,合作社,有限責任臺北縣立土城國民中學員生消費合作社,22675135轉315,臺北縣立士城國民中學,,,,,,
288947268,合作社,台東縣聖光儲蓄互助社,089-801062,臺東縣長濱鄉寧埔村6鄰光榮路10-2號,,,,,,
288948820,合作社,有限責任臺北縣萬里鄉大鵬國民學校員生消費合作社,,臺北縣萬里鄉大鵬村萬里加投路14號,25.209624504701,121.65597101318,NP100-3,合作場所,,
288948821,合作社,有限責任台電公司第二核能發電廠員工社,,臺北縣萬里鄉野柳村八斗60號,25.205426588614,121.6596794007,NP100-3,合作場所,,
288948822,合作社,有限責任台北縣巨翼計程車運輸合作社,29089626,臺北縣蘆洲市三民路84-1號,25.084409590243,121.47520050296,NP100-3,合作場所,,
288948823,合作社,有限責任臺北縣立蘆洲國民中學員生消費合作社,22811571#228.20,臺北縣蘆洲市中正路265號,25.087087969196,121.46638203619,NP100-3,合作場所,,
288948824,合作社,有限責任交通部觀光局東北角海岸風景特定區管理處員工社,,臺北縣貢寮鄉仁里村仁和路228號,25.053617597267,121.92403338781,NP100-3,合作場所,,
288948825,合作社,有限責任臺北縣貢寮鄉吉林國民學校員生消費合作社,,臺北縣貢寮鄉吉林村內寮街55號,24.985694751924,121.88776201693,NP100-3,合作場所,,
288948826,合作社,有限責任臺北縣石化能源廢料裝設勞動合作社,,臺北縣貢寮鄉真理村大澳街4號,25.055550764598,121.92499097727,NP100-3,合作場所,,
288948827,合作社,有限責任臺北縣貢寮鄉澳底國民小學員生消費合作社,02-24901432,臺北縣貢寮鄉真理村延平街10號,25.054889377386,121.92462006918,NP100-3,合作場所,,
288948828,合作社,保證責任臺南市照顧服務勞動合作社,,臺南市公園路106之4,23.233421191913,120.26025507364,NP100-3,合作場所,,
288948829,合作社,有限責任臺北縣貢寮鄉清潔勞動合作社,02-24941625,臺北縣貢寮鄉雙玉村田寮洋街9號,25.02469355873,121.9214971763,NP100-3,合作場所,,
288948830,合作社,有限責任臺北縣電廠廢料裝卸勞動社,,臺北縣金山鄉中正路119巷9號,24.929138166643,121.3740202137,NP100-3,合作場所,,
288948831,合作社,有限責任臺北縣金山鄉金美國民小學員生消費合作社,24986503,臺北縣金山鄉美田村忠孝一路111號,,,,,,
288948832,合作社,有限責任臺北縣金山鄉中角國民學校員生消費合作社,,臺北縣金山鄉萬壽村海興路17號,25.237172780225,121.62889221819,NP100-3,合作場所,,
288948833,合作社,有限責任臺北縣金山鄉三和國民小學員生消費合作社,24080417,臺北縣金山鄉重和村六股林口38號,25.218890436032,121.60288917181,NP100-3,合作場所,,
288948834,合作社,有限責任臺北縣雙溪鄉上林國民學校員生消費合作社,,臺北縣雙溪鄉上林村內平林60號,25.029033410462,121.831967234,NP100-3,合作場所,,
288948835,合作社,有限責任臺北縣立鳳鳴國民中學員生消費合作社,,臺北縣鶯歌鎮永和街33號.,24.967072966782,121.33176883972,NP100-3,合作場所,,
288948836,合作社,有限責任臺南市成功國民學校員生社,,臺南市中區亦崁里成功路三十二號,22.997963350787,120.20830045638,NP100-3,合作場所,,
288948837,合作社,保證責任中華民國養豬合作社聯合社,,臺南市公園路128號七樓八號,,,,,,
288948838,合作社,有限責任國立臺南啟聰學校員生消費合作社,065900504,臺南市北門路一段109號,22.993370600194,120.21151897542,NP100-3,合作場所,,
288949733,合作社,有限責任屏東縣東新國民中學員生消費合作社,8324920,屏東縣東港鎮東新路1號,22.473525228835,120.46510945597,NP100-3,合作場所,,
288948840,合作社,臺南市環境保護局員工消費合作社,,臺南市南區五德街35號,,,,,,
288949648,合作社,有限責任宜蘭縣蘇澳鎮蓬萊國民小學員生消費合作社,03-9981062,宜蘭縣蘇澳鎮南強里南沃路85號,24.464698969781,121.80302819942,NP100-3,合作場所,,
288949842,合作社,有限責任彰化縣彰化地政事務所員工消費合作社,(04)7271374,彰化市中興路100號,,,,,,
288948843,合作社,有限責任臺南市南區日新國民小學員生消費合作社,06-2912931-115,臺南市南區金華路一段473號,22.973331092428,120.19047442191,NP100-3,合作場所,,
288948844,合作社,有限責任臺灣省自來水股份有限公司第六區管理處員工社,,臺南市南門路22號,22.988108516478,120.2042702616,NP100-3,合作場所,,
288948845,合作社,有限責任臺南市老人活動中心員工消費合作社,,臺南市南門路263號,22.979408404229,120.20388721111,NP100-3,合作場所,,
288948846,合作社,保證責任臺南市農業改良生物科技生產合作社,06-7958264,臺南市善化區文昌里中正路299號1樓,23.125721695425,120.29397917675,NP100-3,合作場所,,
288948847,合作社,有限責任臺南市南區喜樹國民小學員生消費合作社,06-2622462,臺南市喜樹路133號,22.942873356428,120.17990028906,NP100-3,合作場所,,
288947333,合作社,有限責任臺灣省政府農林廳蠶業改良場員工社,,苗栗縣公館鄉館南村120號,24.502351513013,120.82356005599,NP100-3,合作場所,,
288948849,合作社,保証責任臺南市青草生產合作社,06-6376517,臺南市學甲區新達里1-2號,23.236708790852,120.19328667529,NP100-3,合作場所,,
288948850,合作社,保證責任臺南市學甲果菜運銷合作社,06-7831163,臺南市學甲區間中洲光明里256-63號,23.248326500512,120.14935090231,NP100-3,合作場所,,
288948851,合作社,有限責任臺南市安南區南興國民小學員生消費合作社,06-2873204,臺南市安南區公學路五段627號,23.068323196793,120.16754228956,NP100-3,合作場所,,
288948852,合作社,有限責任臺南市安南區安慶國民小學員生消費合作社,06-2460334-0719,臺南市安南區安中路一段703巷80號,23.040146609248,120.19310941612,NP100-3,合作場所,,
288948853,合作社,有限責任臺南市立安南國民中學員生消費合作社,06-2561303,臺南市安南區安中路三段252號,23.048548748192,120.17805430253,NP100-3,合作場所,,
288948854,合作社,有限責任臺南市安南區鎮海國民小學員生消費合作社,06-2841700,臺南市安南區顯草街一段381號,,,,,,
288948855,合作社,有限責任臺南市立安順國民中學員生消費合作社,06-3565691,臺南市安和路三段227號,23.049557476476,120.21822312496,NP100-3,合作場所,,
288948856,合作社,有限責任國立臺南高級海事水產職業學校員生消費合作社,06-3915508,臺南市安平區世平路1號,22.994424492293,120.15102678446,NP100-3,合作場所,,
288948857,合作社,有限責任臺南市安平區西門國民小學員生消費合作社,06-3914141,臺南市安平區安北路180號,23.002455526014,120.15889291029,NP100-3,合作場所,,
288948858,合作社,有限責任台南市照顧服務勞動合作社,06-2937250,臺南市安平區平通路61號,22.992256714064,120.18114684511,NP100-3,合作場所,,
288948859,合作社,有限責任臺南市立金城國民中學員生消費合作社,06-2975816-27,臺南市安平區怡平路8號,22.99312594215,120.18111009881,NP100-3,合作場所,,
288948860,合作社,有限責任臺南市省立高級水產職業學校員生社,,臺南市安平安北路392號,,,,,,
288949647,合作社,保證責任宜蘭縣水產運搬勞動合作社,9973580,宜蘭縣蘇澳鎮南安里海邊路52-1號,24.583602221119,121.86752737841,NP100-3,合作場所,,
288948862,合作社,有限責任臺南市立建興國民中學員生消費合作社,,臺南市府前路一段239號,22.988661027585,120.2029214276,NP100-3,合作場所,,
288948863,合作社,保證責任臺南市東區合作社,06-2753170,臺南市慶東街61號,22.986886822214,120.21587832706,NP100-3,合作場所,,
288948864,合作社,有限責任台南郵局員工消費合作社,,臺南市成功路8號,22.997726523418,120.20998910511,NP100-3,合作場所,,
288948865,合作社,有限責任臺南市社區產業整合運銷合作社,,臺南市新化區中興路823號,23.034278893589,120.30887061831,NP100-3,合作場所,,
288947686,合作社,有限責任南投縣國姓鄉長流國民小學員生消費合作社,049-2431006,南投縣國姓鄉長流村大長路559號,24.066702107727,120.87632858784,NP100-3,合作場所,,
288948867,合作社,有限責任臺灣製鹽總廠台南鹽場員工社,,臺南市本田街二段881號,23.046848407173,120.16649146293,NP100-3,合作場所,,
288948868,合作社,有限責任台灣宜蘭地方法院員工消費合作社,9324188,宜蘭市中山路二段261號,,,,,,
288947623,合作社,有限責任苗栗縣三灣國民小學員生消費合作社,,三灣三灣村1鄰61甲,,,,,,
288947600,合作社,有限責任臺北市立南港高級中學員生消費合作社,27837863轉296,11551臺北市南港區向陽路21號,,,,,,
288948871,合作社,臺東縣多良國校員生消費合作社,,臺東縣多良國校,,,,,,
288948872,合作社,臺南市臺灣基督教長老會新樓醫院員工社,,臺南市東門路57號,22.979947767393,120.2312132117,NP100-3,合作場所,,
288948873,合作社,有限責任臺灣省政府糧食局台南管理處員工社,,臺南市東門路一段320號,22.986792142872,120.21694696253,NP100-3,合作場所,,
288949712,合作社,有限責任屏東縣南州製糖勞動合作社,8645235,屏東縣南州鄉仁里村三民路27號2樓,22.48997802851,120.51027324804,NP100-3,合作場所,,
288948875,合作社,有限責任臺南市第一消費合作社,06-2595653,臺南市海佃路一段三二九號,23.026269945231,120.19032206712,NP100-3,合作場所,,
288948876,合作社,保證責任臺南市玉井聯興青果生產合作社,,臺南市玉井區民族路142號,23.123525492559,120.46654459698,NP100-3,合作場所,,
288947685,合作社,有限責任南投縣國姓鄉港源國民小學員生消費合作社,02-2451933-13,南投縣國姓鄉南港村港頭巷60號,23.928052116356,120.86599539856,NP100-3,合作場所,,
288948878,合作社,有限責任臺南市南區興中荔宅社區合作社,06-2648390,臺南市興中街100號,22.962295861151,120.32682824878,NP100-3,合作場所,,
288948879,合作社,有限責任臺南市立南寧高級中學員生消費合作社,06-2629155,臺南市萬年路167號,22.935339523435,120.18650393353,NP100-3,合作場所,,
288948880,合作社,有限責任臺南市東區裕文國民小學員生消費合作社,06-3317657,臺南市裕文路301號,22.982520427996,120.24563661776,NP100-3,合作場所,,
288948881,合作社,有限責任臺南市東區復興國民小學員生消費合作社,06-3310761,臺南市裕文路60號,22.98259400331,120.23868294212,NP100-3,合作場所,,
288949687,合作社,保證責任屏東縣勝如果菜生產合作社,,屏東縣九如鄉耆老村耆老路135巷20號,22.759327245559,120.49370421788,NP100-3,合作場所,,
288948883,合作社,有限責任臺南市稅務局員工消費合作社,,臺南市進學街15號,23.121998906861,120.20249330264,NP100-3,合作場所,,
288948884,合作社,有限責任臺南市第一資源回收物運銷合作社,062477000,臺南市郡安路5段41號1樓,23.028655790552,120.20150114816,NP100-3,合作場所,,
288948885,合作社,有限責任臺南市北區開元國民小學員生消費合作社,06-2375509,臺南市開元路71巷32號,23.007386341243,120.21673549859,NP100-3,合作場所,,
288948886,合作社,有限責任苗栗縣五湖國民小學員生消費合作社,037-911244,苗栗縣西湖鄉五湖村上湖96號,24.522102888272,120.77662163422,NP100-3,合作場所,,
288948887,合作社,有限責任行政院國軍退除役官兵輔導委員會佳里榮家員工暨院民消費合作社,06-7880664,臺南縣七股鄉三股村147號,23.104616247817,120.12306342444,NP100-3,合作場所,,
288948888,合作社,保證責任臺東縣大武原住民營造勞動合作社,089-761054,臺東縣大武鄉大竹村愛國蒲103號,22.456634066747,120.92196274609,NP100-3,合作場所,,
288948889,合作社,有限責任臺南市私立昭明國民中學員生消費合作社,,臺南縣七股鄉大埕村315號,23.142497388316,120.14216063622,NP100-3,合作場所,,
288948890,合作社,有限責任國立臺南大學附屬高級中學員生消費合作社,06-2338501,臺南縣中山南路948號,23.023038110706,120.25523753672,NP100-3,合作場所,,
288948891,合作社,臺南縣仁德鄉公所代表會員工社,,臺南縣仁德鄉中正路371號,23.226946519652,120.3506012088,NP100-3,合作場所,,
288948892,合作社,有限責任臺南市德南國民小學員生消費合作社,06-2493264,臺南縣仁德鄉中正路二段209號,22.94872847942,120.25089207796,NP100-3,合作場所,,
288948893,合作社,有限責任臺南市仁德國民小學員生消費合作社,,臺南縣仁德鄉中正路２段806號,22.962221198673,120.25407131194,NP100-3,合作場所,,
288948894,合作社,有限責任臺南縣依仁國民小學員生消費合作社,06-2662108,臺南縣仁德鄉中洲村港墘3號,22.908443891776,120.25541060719,NP100-3,合作場所,,
288948895,合作社,有限責任嘉南藥理大學員生消費合作社,06-2661015,臺南縣仁德鄉保安村二仁路60號,22.920123964879,120.22577716896,NP100-3,合作場所,,
288948896,合作社,保證責任臺南縣養蝦生產合作社,,臺南縣佳里鎮中山路389號,22.970855571262,120.25732615455,NP100-3,合作場所,,
288948897,合作社,保証責任宜蘭住宅公用合作社,,宜蘭市南門里舊城南路23號,,,,,,
288948898,合作社,有限責任臺南縣佳興國民小學員生消費合作社,06-7260311,臺南縣佳里鎮佳化里214號,23.189404862451,120.1927855207,NP100-3,合作場所,,
288948899,合作社,保證責任臺南縣第六養豬生產合作社,,臺南縣佳里鎮子龍里55-3號,23.175130845492,120.20669886095,NP100-3,合作場所,,
288948900,合作社,保証責任臺南縣佳里鎮新安社區合作社,,臺南縣佳里鎮漳洲里4鄰204號,23.179201697874,120.15400124207,NP100-3,合作場所,,
288948901,合作社,保證責任臺南縣北門區蔬菜生產合作社,06-7222447,臺南縣佳里鎮鎮山里94-3號,23.150124308633,120.19150917373,NP100-3,合作場所,,
288948902,合作社,臺南縣六甲鄉公所代表會員工消費合作社,,臺南縣六甲鄉六甲村中正路522號,23.230235944659,120.35155146814,NP100-3,合作場所,,
288948903,合作社,有限責任臺南市第一漁權會漁業生產合作社,06-7860091,臺南縣北門鄉中樞村100-7號,23.235033525293,120.13414368496,NP100-3,合作場所,,
288948904,合作社,善化鎮公所員工消費合作社,,臺南縣善化鎮中正路7號,22.992013343114,120.2035524211,NP100-3,合作場所,,
288948905,合作社,有限責任臺南市立大內國民中學員生消費合作社,06-5761010,臺南縣大內鄉內江村319之1號,23.111434816794,120.36701346152,NP100-3,合作場所,,
288948906,合作社,有限責任雲林縣斗六鎮久安國民小學員生消費合作社,,陽明國校,,,,,,
288948907,合作社,有限責任台南市南興國民小學員生消費合作社,5931038,臺南縣安定鄉六嘉村30號,23.080122761174,120.2188643129,NP100-3,合作場所,,
288948908,合作社,有限責任臺南縣官田國民小學員生消費合作社,06-6901195,臺南縣官田鄉官田村11號,23.198676831791,120.34996824632,NP100-3,合作場所,,
288948909,合作社,有限責任行政院勞工委員會職業訓練局台南職業訓練中心員工消費合作社,06-6985973,臺南縣官田鄉工業區工業路40號,,,,,,
288948910,合作社,有限責任臺南縣渡拔國民小學員生消費合作社,,臺南縣官田鄉渡拔村77-1號,,,,,,
288948911,合作社,有限責任臺南市漚汪國民小學員生消費合作社,06-7942012,臺南縣將軍鄉長榮村4號,23.198070762012,120.15933328496,NP100-3,合作場所,,
288948912,合作社,臺南縣左鎮鄉公所代表會員工社,,臺南縣左鎮鄉中正村171-4號,,,,,,
288948913,合作社,保証責任臺南縣嘉民合作農場,,臺南縣後壁鄉嘉民村237號,23.383925658786,120.37623778234,NP100-3,合作場所,,
288948914,合作社,臺南縣後壁鄉公所代表會員工社,,臺南縣後壁鄉後壁村129號,22.946615740914,120.25094524471,NP100-3,合作場所,,
288948915,合作社,有限責任國立後壁高級中學員生消費合作社,6871884,臺南縣後壁鄉茄苳村132號,,,,,,
288948916,合作社,有限責任臺南縣安溪國民小學員生消費合作社,6361535,臺南縣後壁鄉長安村5號,23.064695021382,120.19918812794,NP100-3,合作場所,,
288948917,合作社,有限責任臺南市新化國民小學員生消費合作社,5902035,臺南縣新化鎮中山路173號,23.031830177947,120.25549129852,NP100-3,合作場所,,
288948918,合作社,台灣土地銀行新化分行員工社,,臺南縣新化鎮中山路241號,23.035967745818,120.3086058831,NP100-3,合作場所,,
288948919,合作社,有限責任國立新化高級工業職業學校員生消費合作社,5903994,臺南縣新化鎮信義路54號,23.037983383977,120.31945504209,NP100-3,合作場所,,
288948920,合作社,有限責任臺南縣警察局員工消費合作社,06-6329570,臺南縣新營市中正路3號,23.305360270593,120.31611982154,NP100-3,合作場所,,
288947692,合作社,有限責任南投縣埔里鎮麒麟國民小學員生消合作社,,南投縣埔里鎮武界路7號,23.930441222631,120.99002114137,NP100-3,合作場所,,
288948922,合作社,有限責任臺南市私立興國高級中學員生消費合作社,06-6354571,臺南縣新營市大同路86號,23.312701742103,120.32243391643,NP100-3,合作場所,,
288948923,合作社,保證責任臺南市精緻果菜生產合作社,06-5722633,臺南縣新營市太子路56號,23.303550310214,120.29856130789,NP100-3,合作場所,,
288948924,合作社,有限責任臺南市南梓國民小學員生消費合作社,,臺南縣新營市建業里191號,,,,,,
288948925,合作社,有限責任臺南縣稅務局員工消費合作社,,臺南縣新營市民治路36號,23.311718298456,120.31402288462,NP100-3,合作場所,,
288948926,合作社,保證責任臺南縣肉牛運銷合作社,06-6333185,臺南縣新營市興業里新進路252號,23.301930383795,120.31737406259,NP100-3,合作場所,,
288948927,合作社,台灣省立台南醫院新營公院員工社,,臺南縣新營鎮中正路6號,22.992372803207,120.20395977424,NP100-3,合作場所,,
288948928,合作社,有限責任臺南縣新橋國民學校員生社,,臺南縣新營鎮鐵絨里第一鄰一號,,,,,,
288948929,合作社,有限責任臺南市立柳營國民中學員生消費合作社,06-6223209,臺南縣柳營鄉中山東路二段956號,23.279701635839,120.33145578519,NP100-3,合作場所,,
288948930,合作社,保證責任臺南市旭山社區合作農場,06-6980390,臺南縣柳營鄉旭山村尖山12號,23.235497000409,120.40540226768,NP100-3,合作場所,,
288948931,合作社,臺南縣楠西鄉公所代表會員工社,,臺南縣楠西鄉中正路230號,22.993222782916,120.19701195202,NP100-3,合作場所,,
288948932,合作社,有限責任臺南市楠西國民小學員生消費合作社,,臺南縣楠西鄉四維路69號,23.174155375438,120.48521149718,NP100-3,合作場所,,
288948933,合作社,有限責任臺南市立楠西國民中學員生消費合作社,,臺南縣楠西鄉楠西村中興路107號,23.181803503777,120.48505281829,NP100-3,合作場所,,
288948934,合作社,臺南縣歸仁鄉公所代表會員工社,,臺南縣歸仁鄉中山路288號,22.970897921212,120.25914004056,NP100-3,合作場所,,
288948935,合作社,有限責任臺南縣保西國民小學員生消費合作社,2309683,臺南縣歸仁鄉中正北路三段60號,22.992189982621,120.29352906513,NP100-3,合作場所,,
288948936,合作社,有限責任臺南市永康國民小學員生消費合作社,06-2331465,臺南縣永康市中山南路637號,23.026200213302,120.25616037571,NP100-3,合作場所,,
288948937,合作社,有限責任臺南市五王國民小學員生消費合作社,06-2336842,臺南縣永康市中華二路150號,23.00899714642,120.23695057004,NP100-3,合作場所,,
288948938,合作社,有限責任屏東縣民和儲蓄互助社,7224541,屏東市民教路90號,,,,,,
288948939,合作社,有限責任臺南市永信國民小學員生消費合作社,,臺南縣永康市復華七街166號,23.016143252336,120.24793193961,NP100-3,合作場所,,
288948940,合作社,有限責任臺南市立大灣高級中學員生消費合作社,2737740,臺南縣永康市文賢街68巷1號,23.006330404722,120.27265227156,NP100-3,合作場所,,
288948941,合作社,有限責任臺南市立大橋國民中學員生消費合作社,06-3021793,臺南縣永康市東橋10街1號,,,,,,
288948942,合作社,有限責任台灣省立台南高級工業職業學校員生社,,臺南縣永鄉埔園村木橋9號,23.038792995933,120.25485878414,NP100-3,合作場所,,
288948943,合作社,有限責任臺南縣玉井鄉消費合作社,,臺南縣玉井鄉中山路132號,23.235443043599,120.26374531554,NP100-3,合作場所,,
288948944,合作社,保證責任臺南市一立一果菜運銷合作社,06-6840668,臺南縣白河鎮中山路1-61號,23.345365032848,120.41147633931,NP100-3,合作場所,,
288948945,合作社,有限責任臺南縣六溪國民小學員生消費合作社,,臺南縣白河鎮六溪里26號,23.318782448063,120.44680560597,NP100-3,合作場所,,
288948946,合作社,有限責任臺南市立白河國民中學員生消費合作社,06-6832411,臺南縣白河鎮昇安里220號,23.361679668859,120.42388825273,NP100-3,合作場所,,
288948947,合作社,保證責任臺南市白河果菜生產合作社,06-6852052,臺南縣白河鎮玉豐里87-51號,23.378268443963,120.41644442656,NP100-3,合作場所,,
288948948,合作社,有限責任臺南市西港國民小學員生消費合作社,7952005,臺南縣西港鄉進學街60號,23.122685046571,120.19948874832,NP100-3,合作場所,,
288948949,合作社,有限責任中國石油公司台東營業處員工消費合作社,089-390207,臺東縣台東市仁五街5號3樓,22.768415034336,121.14452896633,NP100-3,合作場所,,
288948950,合作社,有限責任臺南市關廟國民小學員生消費合作社,06-5950848,臺南縣關廟鄉文衡路121號,22.963990572667,120.32595360051,NP100-3,合作場所,,
288948951,合作社,臺南縣鹽水鎮公所代表會員工社,,臺南縣鹽水鎮中山路47號,23.235145860131,120.26218411129,NP100-3,合作場所,,
288948952,合作社,有限責任臺南市立麻豆國民中學員生消費合作社,,臺南縣麻豆鎮南勢里36號,23.264329604557,120.49140140673,NP100-3,合作場所,,
288948953,合作社,保證責任台南市漁產加工生產合作社,06-5726105,臺南縣麻豆鎮南勢里關帝廟39-5號,23.184060645524,120.26187302847,NP100-3,合作場所,,
288948954,合作社,有限責任臺南市培文國民小學員生消費合作社,06-5722169,臺南縣麻豆鎮和平路11號,23.178364829719,120.24352301785,NP100-3,合作場所,,
288948955,合作社,有限責任臺南縣埤頭國民學校員生社,,臺南縣麻豆鎮大山里大山腳1號,23.191175889268,120.22189993152,NP100-3,合作場所,,
288948956,合作社,有限責臺南縣大山國民小學員生消費合作社,5701374,臺南縣麻豆鎮大山里大山腳1號,23.191175889268,120.22189993152,NP100-3,合作場所,,
288948957,合作社,保證責任臺南縣農業改良生產科技生產合作社,06-5722888,臺南縣麻豆鎮寮部里44-36號,,,,,,
288948958,合作社,臺南縣麻豆鎮公所代表會員工消費合作社,,臺南縣麻豆鎮巷口里興國路25號,23.18168523508,120.24815796323,NP100-3,合作場所,,
288948959,合作社,有限責任雲林縣二崙鄉永定國民小學員生消費合作社,,二崙鄉永定國校內,,,,,,
288948960,合作社,保證責任臺南縣第四養豬生產社,,臺南縣麻頭鎮海埔里埤子尾35號,23.200138344828,120.21589263636,NP100-3,合作場所,,
288948961,合作社,有限責任臺東縣警察局員工消費合作社,089-327702,臺東巿中山路268號,,,,,,
288948962,合作社,台東縣消費合作社聯合社,,臺東市中山咯276號,,,,,,
288948963,合作社,有限責任臺東縣豐年國民小學員生消費合作社,226733,臺東市中興路三段320號,,,,,,
288948964,合作社,有限責任台東縣稅捐稽征處員工消費合作社,089-231600,臺東市中興路二段729號,,,,,,
288948965,合作社,有限責任國立臺東大學附屬體育高級中學員生消費合作社,089-385376,臺東市中興路五段399號,,,,,,
288948966,合作社,有限責任臺東縣豐田國民小學員生消費合作社,089-380345,臺東市中興路四段750號,,,,,,
288948967,合作社,保證責任臺東縣馬亨亨原住民營造勞動合作社,089-345592,臺東市中華路2段782巷96號,,,,,,
288948968,合作社,保證責任臺東縣羊乳運銷合作社.,089-360081,臺東市中華路4段243巷189號,,,,,,
288948969,合作社,有限責任臺東縣豐榮國民小學員生消費合作社,323353,臺東市中華路二段154巷150號,,,,,,
288948970,合作社,有限責任臺東縣仁愛國民小學員生消費合作社,089-322071,臺東市四維路一段400號,,,,,,
288948971,合作社,有限責任國立臺東女子高級中學員生消費合作社,089-321268#282,臺東市四維路一段690號,,,,,,
288948972,合作社,有限責任臺東縣卑南國民小學員生消費合作社,089-223096,臺東市更生北路317號,,,,,,
288948973,合作社,有限責任行政院國軍退除役官兵輔導委員會馬蘭榮譽國民之家員工消費合作社,089-222417,臺東市更生路1010號,,,,,,
288948974,合作社,有限責任臺東縣新生國民小學員生消費合作社,089-322039#150,臺東市更生路474巷45號,,,,,,
288948975,合作社,保證責任臺東縣阿魯富多媒體資訊傳播原住民勞動合作社,232463,臺東市更生路809號,,,,,,
288948976,合作社,保證責任台東縣釋迦生產合作社,089-339812,臺東市漢中街161巷10號,,,,,,
288948977,合作社,保證責任臺東縣南島原住民造林勞動合作社,089-385489,臺東縣卑南鄉利嘉村利民路140之1號,22.769483511578,121.05935937859,NP100-3,合作場所,,
288948978,合作社,台東縣賓朗儲蓄互助社,089-227197,臺東縣卑南鄉賓朗村12鄰下賓朗36號,22.80329418925,121.09505138994,NP100-3,合作場所,,
288947690,合作社,樂透儲蓄互助社,46798745,南投縣埔里鎮史港路9999號,,,,,,
288948980,合作社,保證責任臺東縣原住民成功營造勞動合作社,089-541172,臺東縣東河鄉隆昌村9鄰107號,22.92598513459,121.26728781452,NP100-3,合作場所,,
288948981,合作社,臺東縣大鳥儲蓄互助社,089-792589,臺東縣大武鄉大鳥村67號,22.383527834914,120.90937703766,NP100-3,合作場所,,
288948982,合作社,台東縣大溪儲蓄互助社,089-761167,臺東縣太麻里鄉多良村16鄰大溪144號,22.462289687561,120.93832874207,NP100-3,合作場所,,
288948983,合作社,保證責任臺東縣東海岸原住民土木建築勞動合作社,089-761103,臺東縣太麻里鄉多良村大溪178號,22.461884746533,120.93927374743,NP100-3,合作場所,,
288948984,合作社,台東縣成功儲蓄互助社,089-853822,臺東縣成功鎮三民里上海街21號,23.101920271402,121.37327626498,NP100-3,合作場所,,
288948985,合作社,有限責任交通部觀光局東部海岸國家風景區管理處員工消費合作社,089-841520#1202,臺東縣成功鎮信義里新村路25號,23.020412904191,121.32497800679,NP100-3,合作場所,,
288948986,合作社,有限責任法務部矯正署泰源技能訓練所消費合作社,089-891743#219,臺東縣東河鄉北源村11鄰32號,23.016373602479,121.27664358093,NP100-3,合作場所,,
288948987,合作社,有限責任臺東縣北源國民小學員生消費合作社,089-892223,臺東縣東河鄉北源村那順21號,23.018230697944,121.28396829223,NP100-3,合作場所,,
288948988,合作社,臺東縣作基儲蓄互助社,089-896162,臺東縣東河鄉東河村10鄰291號,22.968726049384,121.30359916182,NP100-3,合作場所,,
288948989,合作社,台東縣作基儲蓄互助社,089-896162,臺東縣東河鄉東河村10鄰南東河291號,22.968726085413,121.30359921066,NP100-3,合作場所,,
288948990,合作社,有限責任臺東縣東河國民小學員生消費合作社,089-896160,臺東縣東河鄉東河村16鄰35號,22.956452232624,121.29231380244,NP100-3,合作場所,,
288948991,合作社,有限責任臺東縣泰源國民小學員生消費合作社,891011,臺東縣東河鄉泰源村297號,22.998414261002,121.28504110848,NP100-3,合作場所,,
288948992,合作社,保證責任臺東縣東海岸青果運銷合作社,089-541295,臺東縣東河鄉興昌村30鄰35-3號,22.902759482028,121.25224144497,NP100-3,合作場所,,
288948993,合作社,有限責任臺東縣振興國民小學員生消費合作社,089-951068,臺東縣池上鄉振興村6鄰36號,23.043563989151,121.19560313048,NP100-3,合作場所,,
288948994,合作社,有限責任臺東縣萬安國民小學員生消費合作社,089-862371,臺東縣池上鄉萬安村一鄰五之二號,23.095557967909,121.21801119521,NP100-3,合作場所,,
288948995,合作社,有限責任臺東縣政府員工消費合作社,089-326141,臺東縣臺東市中山路276號,22.755556379034,121.15030408247,NP100-3,合作場所,,
288948996,合作社,有限責任行政院農業委員會台東區農業改良場員工消費合作社,089-325110,臺東縣臺東市中華路一段675號,22.748238098343,121.14864778852,NP100-3,合作場所,,
288948997,合作社,保證責任臺東縣荖花荖葉運銷合作社,0911-888-267,臺東縣臺東市卑南里南一街201號,22.780206084081,121.12036870479,NP100-3,合作場所,,
288948998,合作社,有限責任臺東縣南王國民小學員生消費合作社,089-220346,臺東縣臺東市南王里更生北路726號,22.788959878876,121.11433276729,NP100-3,合作場所,,
288948999,合作社,有限責任國立臺東大學附設實驗國民小學員生消費合作社,089-322047,臺東縣臺東市博愛路345號,22.755307415619,121.14724691536,NP100-3,合作場所,,
288949000,合作社,保證責任臺東縣瑞山蔬果運銷合作社,,臺東縣臺東市康樂里7鄰康樂路256號,22.750868372622,121.10510529501,NP100-3,合作場所,,
288949001,合作社,保證責任臺東縣原住民果菜生產合作社,089-516435,臺東縣臺東市建農里7鄰西康路一段218號,22.722478910856,121.08348426165,NP100-3,合作場所,,
288949002,合作社,有限責任臺東縣馬蘭國民小學員生消費合作社,089-229437,臺東縣臺東市新社三街六號,22.765380095252,121.13566346271,NP100-3,合作場所,,
288949003,合作社,台東縣基善儲蓄互助社,089-361373,臺東縣臺東市福建路259號,22.75100474067,121.15118327425,NP100-3,合作場所,,
288949004,合作社,台東縣竹湖儲蓄互助社,089-832607,臺東縣長濱鄉竹湖村17鄰南竹湖路33-2號,23.27521877712,121.42156547647,NP100-3,合作場所,,
288949005,合作社,有限責任臺東縣長濱國民中學員生消費合作社,089-831017,臺東縣長濱鄉長濱村15鄰180號,23.31454984675,121.45876084947,NP100-3,合作場所,,
288949006,合作社,有限責任臺東縣關山地區機關聯合員工社,089-811179,臺東縣關山鎮中山路54號,23.047447717143,121.16310917763,NP100-3,合作場所,,
288949007,合作社,保証責任臺東縣德高社區合作社,,臺東縣關山鎮德高里十鄰永豐131之2號,23.074401432694,121.17827737967,NP100-3,合作場所,,
288949008,合作社,有限責任國立關山高級工商職業學校員生消費合作社,089-811006#53,臺東縣關山鎮民權路58號,23.047963758779,121.15913554395,NP100-3,合作場所,,
288949009,合作社,保証責任臺東縣電光社區合作社,089-951032,臺東縣關山鎮電光里中興3鄰34號,23.007802206401,121.17447469042,NP100-3,合作場所,,
288949686,合作社,保證責任屏東縣青果生產合作社,7392431,屏東縣九如鄉玉泉村中庄街56號,22.725094152168,120.50655002349,NP100-3,合作場所,,
288949011,合作社,有限責任台灣省茶葉改良場台東分瑒員工社,,臺東縣龍田村光榮四號,22.905967484926,121.09964605274,NP100-3,合作場所,,
288949012,合作社,有限責任雲林縣古坑鄉興昌國民小學員生消費合作社,,興昌國校,,,,,,
288949013,合作社,保證責任花蓮縣土木建築勞動合作社,03-8349598,花蓮市中正路164號,,,,,,
288949014,合作社,保證責任台灣省礦石產品運銷社,26209,花蓮市中華路372號,,,,,,
288949015,合作社,有限責任花蓮縣花蓮市北濱國民小學員生消費合作社,03-8324093,花蓮市主權里北濱街113號,,,,,,
288949016,合作社,有限責任花蓮縣立美崙國民中學員生消費合作社,03-8223537,花蓮市化道路40巷1號,,,,,,
288949017,合作社,有限責任臺灣花蓮地方法院檢察處員工消費合作社,,花蓮市府前路15號,,,,,,
288949018,合作社,有限責任花蓮縣稅捐稽征處員工消費合作社,,花蓮市府前路19號,,,,,,
288949019,合作社,有限責任審計部台灣省花蓮縣審計室員工消費合作社,,花蓮市府後路21號,,,,,,
288949020,合作社,有限責任臺灣省立花蓮仁愛之家員工消費合作社,,花蓮市民權路125號,,,,,,
288949021,合作社,有限責任經濟部商品檢驗局花蓮分局員工消費合作社,,花蓮市海岸路19號,,,,,,
288949022,合作社,有限責任台灣肥料公司花蓮廠員工社,,花蓮市華東15號,,,,,,
288949023,合作社,有限責任花蓮縣立自強國民中學員工消費合作社,03-8579779,花蓮市裕祥路89號,,,,,,
288949024,合作社,有限責任花蓮縣立國風國民中學員生消費合作社,03-8579779,花蓮市裕祥路八十九號,,,,,,
288949025,合作社,有限責任花蓮縣原住民營建勞動合作社,03-8560382,花蓮市長春街11向6號,,,,,,
288949026,合作社,有限責任花蓮縣大全國民小學員生消費合作社,03-8702730,花蓮縣光復鄉大全村中山路一段216巷8號,23.652127341992,121.41836611426,NP100-3,合作場所,,
288949027,合作社,有限責任花蓮縣光復鄉大富國民小學員生消費合作社,03/8731210,花蓮縣光復鄉大富村明德路二九巷一二號,23.607306532285,121.39090732288,NP100-3,合作場所,,
288949028,合作社,有限責任花蓮限制糖甘蔗採收運銷合作社,,花蓮縣光復鄉大進村糖廠街19號,23.658675622964,121.42063088899,NP100-3,合作場所,,
288949029,合作社,有限責任花蓮縣光復鄉大進國民小學員生消費合作社,03-8701049,花蓮縣光復鄉大進村糖廠街四號,23.654883108645,121.4192848024,NP100-3,合作場所,,
288949030,合作社,有限責任花蓮縣花崗國民中學員生消費合作社,038700245,花蓮縣光復鄉林森路100號.,23.667347841879,121.4271726955,NP100-3,合作場所,,
288949031,合作社,有限責任花蓮縣吉興建築勞動合作社,03-8527687,花蓮縣吉安鄉吉興路一段33號,23.971698169422,121.57819371092,NP100-3,合作場所,,
288949032,合作社,有限責任臺灣省畜產試驗所花蓮種畜繁殖場員工消費合作社,,花蓮縣吉安鄉干城村25號,23.950356563391,121.54880771568,NP100-3,合作場所,,
288949033,合作社,縣立二水國中員生消費合作社,,二水國中,,,,,,
288949034,合作社,有限責任花蓮縣立吉安國民中學員生消費合作社,03-8523136,花蓮縣吉安鄉慶豐村246號,23.977472631001,121.57180386128,NP100-3,合作場所,,
288949035,合作社,有限責任花蓮吉安鄉化仁國民小學員生消費合作社,03-8528720,花蓮縣吉安鄉東昌村東里十一街83號,23.963593675632,121.59600525708,NP100-3,合作場所,,
288949036,合作社,保證責任花蓮縣豐濱鄉靜浦社區合作社,,花蓮縣豐演鄉靜埔村132-3號,,,,,,
288949037,合作社,有限責任花蓮縣吉安鄉稻香國民小學員生消費合作社,"03-8537355  03-",花蓮縣吉安鄉稻香村14鄰99號,23.96323117759,121.56915108702,NP100-3,合作場所,,
288949038,合作社,保證責任花蓮縣畜牧生產合作社,,花蓮縣壽豐鄉共和村漁池28號,23.861906151235,121.52166573453,NP100-3,合作場所,,
288949039,合作社,有限責任花蓮縣壽豐鄉平和國民小學員生消費合作社,03-8661223,花蓮縣壽豐鄉平和村平和路34號,23.883701459885,121.51968023672,NP100-3,合作場所,,
288949040,合作社,有限責任花蓮縣壽豐鄉豐裡國民小學員生消費合作社,03-8652183,花蓮縣壽豐鄉豐裡村中山路二九九號,23.841905724396,121.50715858392,NP100-3,合作場所,,
288949041,合作社,有限責任花蓮縣富里鄉吳江國民小學員生消費合作社,03-8861242,花蓮縣富里鄉吳江村52號,23.279246237561,121.34129995614,NP100-3,合作場所,,
288949042,合作社,保証責任花蓮縣學田合作農場,,花蓮縣富里鄉學田村2號,23.149655637967,121.21514040032,NP100-3,合作場所,,
288949043,合作社,有限責任花蓮縣富里鄉富里國民小學員生消費合作社,03-8831042,花蓮縣富里鄉富里村永安街52號,23.171212737862,121.24747545362,NP100-3,合作場所,,
288949044,合作社,有限責任花蓮縣立富里國民中學員生消費合作社,03-8830016,花蓮縣富里鄉富里村永安路一七三號,23.170974186224,121.24842914459,NP100-3,合作場所,,
288949045,合作社,有限責任花蓮縣富里鄉東竹國民小學員生消費合作社,"03-8821514  038",花蓮縣富里鄉竹田村富田3號,23.214180113391,121.27977926333,NP100-3,合作場所,,
288949046,合作社,有限責任花蓮縣新城鄉嘉里國民小學員生消費合作社,03-8261180、03-8,花蓮縣新城鄉嘉里村三街28號,24.018704156787,121.61000921592,NP100-3,合作場所,,
288949047,合作社,有限責任花蓮縣台灣土地銀行玉里分行員工消費合作社,,花蓮縣玉里鎮中山路2段51號,23.333162868081,121.31490576352,NP100-3,合作場所,,
288949048,合作社,有限責任花蓮國立玉里高級中學員生消費合作社,03-8886171,花蓮縣玉里鎮中華路424號,23.347017182623,121.31909791179,NP100-3,合作場所,,
288949049,合作社,有限責任花蓮縣玉里鎮德武國民小學員生消費合作社,03-8872824,花蓮縣玉里鎮德武里九鄰171號,23.465876706339,121.40556969732,NP100-3,合作場所,,
288949050,合作社,有限責任彰化縣田尾鄉仁豊國小員生消費社,,仁豊國小校內,,,,,,
288949051,合作社,有限責任花蓮縣玉里鎮春日國民小學員生消費合作社,03-8872628,花蓮縣玉里鎮春日里泰林95號,23.450729476244,121.39140695402,NP100-3,合作場所,,
288949052,合作社,有限責任花蓮縣豐濱鄉新社國民小學員生消費合作社,03-8711138,花蓮縣豐濱鄉新社村150號,23.651931070318,121.53586149752,NP100-3,合作場所,,
288949053,合作社,有限責任花蓮縣玉里鎮三民小學員生消費合作社,03-8841183,花蓮縣玉里鎮春日里泰林九五號,23.444486505671,121.38715240458,NP100-3,合作場所,,
288949054,合作社,有限責任花蓮縣立玉東國民中學消費合作社,03-8851062,花蓮縣玉里鎮松埔里松埔39號,23.403508165995,121.33060895022,NP100-3,合作場所,,
288949055,合作社,有限責任花蓮縣玉里鎮源城國民小學員生消費合作社,"03-8882871  03-",花蓮縣玉里鎮源城里十二鄰水源62號,23.321606366104,121.301253693,NP100-3,合作場所,,
288949056,合作社,有限責任花蓮縣瑞鄉奇美國民小學員生消費合作社,03-8991077,花蓮縣瑞穗鄉奇美村47號,23.497526226261,121.44586878931,NP100-3,合作場所,,
288949057,合作社,有限責任花蓮縣瑞穗鄉公所員工消費合作社,,花蓮縣瑞穗鄉瑞穗村32號,23.498300558895,121.37735490011,NP100-3,合作場所,,
288949058,合作社,有限責任花蓮縣秀林鄉佳民國民小學員生消費合作社,"03-8264900  03-",花蓮縣秀林鄉佳民村119號,24.053933530533,121.59938846705,NP100-3,合作場所,,
288949059,合作社,有限責任花蓮縣秀林鄉文蘭國民小學員生消費合作社,03-8641020,花蓮縣秀林鄉文蘭村米亞丸1號,23.922250304391,121.50159435331,NP100-3,合作場所,,
288949060,合作社,有限責任花蓮縣原住民第三清潔勞動合作社,03-8577896,花蓮縣秀林鄉水源村水源74號,24.004853953429,121.55272756721,NP100-3,合作場所,,
288949061,合作社,保證責任台灣省花東建築勞動合作社,038511527,花蓮縣秀林鄉水源路七鄰八十之一號,,,,,,
288949649,合作社,有限責任宜蘭縣蘇澳鎮南安國民小學員生消費合作社,03-9962664,宜蘭縣蘇澳鎮學府路122號,24.578911189234,121.86838489659,NP100-3,合作場所,,
288949063,合作社,有限責任花蓮縣玉里鎮松浦國民小學員生消費合作社,"03-8234673  03-",花蓮縣花蓮市民立里中興路四一號,23.991829812389,121.63100212662,NP100-3,合作場所,,
288949064,合作社,有限責任花蓮縣萬榮鄉明利國民小學員生消費合作社,03-8751048,花蓮縣萬榮鄉明利村35號,23.70564672794,121.41236033957,NP100-3,合作場所,,
288949065,合作社,有限責任花蓮縣萬榮鄉公所員工消費合作社,,花蓮縣萬榮鄉(村)19號,23.820157730899,121.43173567181,NP100-3,合作場所,,
288949066,合作社,有限責任南投縣信義鄉機關學校聯合員工消費合作社,,信義鄉明德村玉山路47號,,,,,,
288949067,合作社,有限責任花蓮縣萬榮鄉見晴國民小學員生消費合作社,03-8771574,花蓮縣萬榮鄉見晴村89號,23.784020265191,121.45289352189,NP100-3,合作場所,,
288949068,合作社,有限責任花蓮縣磯崎國民小學員生消費合作社,,花蓮縣豐濱鄉磯崎村34號,23.695847983126,121.55023846038,NP100-3,合作場所,,
288949069,合作社,有限責任花蓮縣立豐濱國民中學員生消費合作社,03-8791159,花蓮縣豐濱鄉豐濱村光豐路26號,23.601076496934,121.52162416321,NP100-3,合作場所,,
288949070,合作社,有限責任花蓮縣鳳林鎮長橋國民小學員生消費合作社,03-8751654,花蓮縣鳳林鎮鎮北林里平園三二號,23.710124408891,121.49654523432,NP100-3,合作場所,,
288949071,合作社,保証責任花蓮縣鳳信社區合作社,,花蓮縣鳳林鎮鳳信里中正路一段166號,23.735885041525,121.44456925186,NP100-3,合作場所,,
288949072,合作社,有限責任苗栗縣猶盂國民學校員生消費合作社,,苑里鎮猶盂里82號,,,,,,
288949073,合作社,有限責任行政院衛生署苗栗醫院員工消費合作社,037-261920,苗栗市嘉盛里為公路747號,,,,,,
288949074,合作社,苗栗縣第一消費合作社,,苗栗市大同里福星山18號,,,,,,
288949075,合作社,有限責任國立苗栗高級農工職業學校員生消費合作社,037369606,苗栗市玉維路286號,,,,,,
288949076,合作社,保證責任中華民國葛仙米藻俱樂部運銷合作社,,苗栗市福星街206號12-2,,,,,,
288949077,合作社,有限責任苗栗縣政府員工消費合作社,037-354856,苗栗市縣府路100號,,,,,,
288949078,合作社,有限責任苗栗縣立苗栗國民中學員生消費合作社,363581,苗栗市高苗里1鄰木鐸山1號,,,,,,
288949079,合作社,有限責任苗栗縣三義鄉公所員工消費合作社,037-872801,苗栗縣三義鄉廣盛村復興路30號,24.412813823071,120.77025181724,NP100-3,合作場所,,
288949080,合作社,有限責任臺灣省水利局機械工程隊員工社,,苗栗縣三義鄉鯉魚村三櫃31之1號,24.342342421234,120.77201988306,NP100-3,合作場所,,
288949075,合作社,有限責任國立苗栗高級農工職業學校員生消費合作社,037369606,苗栗市玉維路286號,,,,,,
288949076,合作社,保證責任中華民國葛仙米藻俱樂部運銷合作社,,苗栗市福星街206號12-2,,,,,,
288949077,合作社,有限責任苗栗縣政府員工消費合作社,037-354856,苗栗市縣府路100號,,,,,,
288949078,合作社,有限責任苗栗縣立苗栗國民中學員生消費合作社,363581,苗栗市高苗里1鄰木鐸山1號,,,,,,
288949079,合作社,有限責任苗栗縣三義鄉公所員工消費合作社,037-872801,苗栗縣三義鄉廣盛村復興路30號,24.412813823071,120.77025181724,NP100-3,合作場所,,
288949080,合作社,有限責任臺灣省水利局機械工程隊員工社,,苗栗縣三義鄉鯉魚村三櫃31之1號,24.342342421234,120.77201988306,NP100-3,合作場所,,
288949081,合作社,有限責任苗栗縣僑成國民小學員生消費合作社,,苗栗縣僑成國民學校,,,,,,
288949082,合作社,有限責任雲林縣莿桐鄉橋和國民小學員生消費合作社,,僑和國校,,,,,,
288949083,合作社,有限責任苗栗縣福基國民小學員生消費合作社,037-224020,苗栗縣公館鄉福基村275號,24.469018918842,120.8327988252,NP100-3,合作場所,,
288949084,合作社,有限責任苗栗縣卓蘭國民中學員生消費合作社,,苗栗縣卓蘭鄉志庄村167號,,,,,,
288949085,合作社,苗栗縣卓蘭鎮吉峰合作農場,,苗栗縣卓蘭鎮內灣里六鄰45號,24.297205784823,120.85980799471,NP100-3,合作場所,,
288949086,合作社,有限責任苗栗縣豐田國民小學員生消費合作社,04-25892164,苗栗縣卓蘭鎮豐田國小員生消費合作社,,,,,,
288949087,合作社,有限責任苗栗縣田美國民小學員生消費合作社,037-822445,苗栗縣南庄鄉田美村9鄰191號,24.629340205731,121.00848235853,NP100-3,合作場所,,
288949088,合作社,有限責任苗栗縣大湖鄉公所員工消費合作社,991111*128,苗栗縣大湖鄉中正路80號,24.423385565728,120.86617423539,NP100-3,合作場所,,
288949089,合作社,有限責任苗栗縣新開國民小學員生消費合作社,,苗栗縣大湖鄉開村第三五號,24.41171840972,120.90068118835,NP100-3,合作場所,,
288949090,合作社,有限責任苗栗縣龍坑國民小學員生消費合作社,037-722027,苗栗縣後龍鎮龍坑里158號,24.601926014212,120.77815390146,NP100-3,合作場所,,
288949091,合作社,有限責任國立竹南高級中學員生消費合作社,460801,苗栗縣竹南鎮中正路98號,24.683863100383,120.87479469826,NP100-3,合作場所,,
288949092,合作社,有限責任苗栗縣竹南鎮消費合作社,,苗栗縣竹南鎮博愛街323號,24.68819548053,120.86809719748,NP100-3,合作場所,,
288949093,合作社,有限責任苗栗縣村耕農業生產合作社,037-480490,苗栗縣竹南鎮環市路一段22號1樓,24.682382698346,120.87760586425,NP100-3,合作場所,,
288949094,合作社,有限責任苗栗縣苑裡國民小學員生消費合作社,037-861013,苗栗縣苑裡鎮中山路307號,24.448359577369,120.65512497589,NP100-3,合作場所,,
288949095,合作社,有限責任苗栗縣致民國民中學員生消費合作社,037-744788,苗栗縣苑裡鎮舊社里九鄰96-1號,24.418665113202,120.68570767418,NP100-3,合作場所,,
288949096,合作社,有限責任苗栗縣政府國際文化觀光局員工消費合作社,037-352961,苗栗縣苗栗市北苗里自治路50號,24.565967886999,120.82041519266,NP100-3,合作場所,,
288949600,合作社,宜蘭縣大湖國校員生消費社,,大湖國校,,,,,,
288947642,合作社,有限責任台灣花蓮自強外役監獄員工消費合作社,,光復鄉大全村建國路1段自強新村1號,,,,,,
288949099,合作社,苗栗縣西湖鄉四湖社社區合作農場,,苗栗縣西湖鄉四湖村3鄰19-1號,24.533938115311,120.74318452279,NP100-3,合作場所,,
288949100,合作社,有限責任苗栗縣瑞湖國民小學員生消費合作社,037-921614,苗栗縣西湖鄉四湖村老屋16號,24.527415432125,120.75207018253,NP100-3,合作場所,,
288949101,合作社,有限責任苗栗縣西湖鄉公所員工消費合作社,037-921515,苗栗縣西湖鄉龍洞村1鄰5號,24.556770998363,120.75704350677,NP100-3,合作場所,,
288949102,合作社,雲林縣養兔生產合作社,,莿桐鄉麻園村榮貫路21號,,,,,,
288949103,合作社,有限責任苗栗縣烏眉國民中學員生消費合作社,037-752409,苗栗縣通宵鎮內湖里一號,24.506393446675,120.71667704243,NP100-3,合作場所,,
288949104,合作社,有限責任苗栗縣通宵國民小學員生消費合作社,,苗栗縣通宵鎮通東里中正路十號,24.491004720372,120.68399046518,NP100-3,合作場所,,
288949105,合作社,有限責任苗栗縣坪頂國民小學員生消費合作社,782214,苗栗縣通霄鎮坪頂里4鄰50號,24.446608541147,120.70563607918,NP100-3,合作場所,,
288949106,合作社,有限責任苗栗縣啟新國民中學員生消費合作社,792804,苗栗縣通霄鎮白東里35-2號,24.562591656146,120.70848099535,NP100-3,合作場所,,
288949107,合作社,有限責任苗栗縣立通霄國民中學員生消費合作社,037-752002,苗栗縣通霄鎮通西里中山路190巷1號,24.491964075478,120.67997601563,NP100-3,合作場所,,
288949108,合作社,有限責任苗栗縣談文國民小學員生消費合作社,037-624044,苗栗縣造橋鄉談村6鄰54號,,,,,,
288949109,合作社,有限責任苗栗縣龍昇國民小學員生消費合作社,,苗栗縣造橋鄉龍昇村8鄰16之1號,24.640847500814,120.82963796765,NP100-3,合作場所,,
288949110,合作社,有限責任苗栗縣中興國民小學員生消費合作社,224458,苗栗縣銅鑼鄉中平村150號,24.498432676961,120.80994627363,NP100-3,合作場所,,
288949111,合作社,有限責任苗栗縣頭份鎮信德國民小學員生消費合作社,602880,苗栗縣頭份鎮信德路58號,24.686797492194,120.96053219429,NP100-3,合作場所,,
288949112,合作社,有限責任苗栗縣建國國民中學員生消費合作社,,苗栗縣頭份鎮建國路119號,24.69537247241,120.91022337429,NP100-3,合作場所,,
288949113,合作社,有限責任苗栗縣六合國民小學員生消費合作社,037-663065,苗栗縣頭份鎮東庄里民族路252號,24.685589666091,120.90120349302,NP100-3,合作場所,,
288949114,合作社,雲林縣莿桐鄉公所員工消費合作社,,莿桐鄉莿桐村和平路53號,,,,,,
288949115,合作社,有限責任雲林科技大學員生消費合作社,,莿桐鄉莿桐村農校路1號,,,,,,
288949116,合作社,有限責任臺灣土地銀行虎尾分行員工消費合作社,,虎尾鎮中正路118號,,,,,,
288949117,合作社,有限責任雲林縣虎尾鎮虎尾國民中學員生消費合作社,,虎尾鎮中溪里汕尾路16-9號,,,,,,
288949118,合作社,有限責任雲林縣斗六市石榴國民中學員生消費合作社,,虎尾鎮光復路22號,,,,,,
288949119,合作社,有限責任雲林縣虎尾製糖勞動合作社,05-6324862,虎尾鎮安慶里民主路14-11號,,,,,,
288949120,合作社,雲林縣肉品市場員工消費合作社,,虎尾鎮延平里下湳100號,,,,,,
288949121,合作社,有限責任雲林縣褒忠鄉褒忠國民中學員生消費合作社,,褒忠鄉埔姜村中滕路22號,,,,,,
288949122,合作社,有限責任台南縣成功國民小學員生消費合作社,,西港鄉.,,,,,,
288949123,合作社,保証責任雲林縣七座聯合社區合作農場,,西螺鎮七座里6鄰58號,,,,,,
288949124,合作社,有限責任雲林縣西螺鎮文昌國民小學員生消費合作社,,西螺鎮中興里文昌國校,,,,,,
288949125,合作社,有限責任台中縣環境保護局員工消費合作社,04-25269140,豐原市山路353號7樓,,,,,,
288949126,合作社,限責任行政院農業委員會水土保持局第二工桯所員工消費合作社,04-25261165,豐原市西安街21之1號,,,,,,
288949127,合作社,有限責任台中縣衛生局員工消費合作社,04-25265394,豐原市西安街21號,,,,,,
288949128,合作社,有限責任台中縣豐原地政事務所員工消費合作社,04-25253542,豐原市西安街21號,,,,,,
288949129,合作社,有限責任交通部台中區監理所豐原監理站員工消費合作社,04-25274229,豐原市豐東路120號,,,,,,
288949130,合作社,有限責任雲林縣崙背鄉豐榮國民小學員生消費合作社,,豐榮國民學校,,,,,,
288949131,合作社,保証責任花蓮縣豐富社區合作社,,豐濱鄉豐濱村24鄰51號之1,,,,,,
288949132,合作社,有限責任台北縣貢寮鄉公所員工社,,貢寮鄉貢寮村朝陽街54號,,,,,,
288949133,合作社,有限責任苗栗縣造橋鄉公所員工社,,造橋鄉造橋村老庄三之1號,,,,,,
288949134,合作社,有限責任金門縣金廈計程車運輸合作社,330778,金門縣金湖鎮新湖里塔后48-3號,24.440275025382,118.4096774421,NP100-3,合作場所,,
288949135,合作社,有限責任苗栗縣銅鑼鄉公所員工社,,銅鑼鄉永樂路15號,,,,,,
288949136,合作社,有限責任台東縣關山地政事務所員工消費社,,關山鎮民權路48號,,,,,,
288949137,合作社,保証責任雲林縣紙箱容器生產社,,雲林縣二崙鄉來惠村3鄰7號,23.770835918865,120.40052210877,NP100-3,合作場所,,
288949138,合作社,保證責任雲林縣庄西合作農場,05-5989637,雲林縣二崙鄉厝西村田底2號,23.799074283392,120.35281579352,NP100-3,合作場所,,
288949139,合作社,保證責任雲林縣楊賢合作農場,05-5982091,雲林縣二崙鄉楊賢村竹圍路二號,23.812327931809,120.4171983896,NP100-3,合作場所,,
288949140,合作社,保證責任雲林縣北港合作農場,05-7861649,雲林縣元長鄉下寮村湖內路44-8號,23.60850094395,120.32606279385,NP100-3,合作場所,,
288949141,合作社,保證責任雲林縣元長家禽生產合作社,05-7883803,雲林縣元長鄉龍岩村143-3號,23.628361144868,120.3148474209,NP100-3,合作場所,,
288949142,合作社,有限責任雲林縣台西鄉崙豐國民小學員生消費合作社,056982142,雲林縣台西鄉永豐村崙豐路42號,23.719721266722,120.20861185531,NP100-3,合作場所,,
288949143,合作社,保證責任台灣省番鴨運銷合作社,056983576,雲林縣台西鄉牛厝村成功路172之5號.,,,,,,
288949144,合作社,有限責任雲林縣四湖鄉飛沙國民中學員生消費合作社,,雲林縣四湖鄉飛沙村火同路81號,23.643341443295,120.1727097062,NP100-3,合作場所,,
288949145,合作社,保證責任雲林縣土庫養鴨生產合作社,,雲林縣土庫鎮宮北里建國路155號,23.679309222158,120.39228159309,NP100-3,合作場所,,
288949146,合作社,保證責任雲林縣馬光果菜生產合作社,05-6654106,雲林縣土庫鎮忠孝街78-8號,23.711655556129,120.35561152377,NP100-3,合作場所,,
288949147,合作社,保證責任雲林縣米食加工生產合作社,,雲林縣大埤鄉聯美村108之20號,23.650129380836,120.39956419006,NP100-3,合作場所,,
288949148,合作社,保證責任雲林縣大埤酸菜生產合作社,05-5915629,雲林縣大埤鄉興安村103之2號,23.626237806601,120.3916852761,NP100-3,合作場所,,
288949149,合作社,保證責任雲林縣水尾果菜生產合作社,,雲林縣崙背鄉水產村頂街44號,23.786340520791,120.35288698825,NP100-3,合作場所,,
288949150,合作社,雲林縣崙背養豬生產社,,雲林縣崙背鄉羅厝村東興168號之2,23.758217641382,120.36443249632,NP100-3,合作場所,,
288949151,合作社,有限責任國立斗六高級家事商業職業學校員生消費合作社,05-5321400,雲林縣斗六巿成功路120號,,,,,,
288949152,合作社,有限責任雲林縣稅捐稽徵處員工消費合作社,,雲林縣斗六市府交路35號,,,,,,
288949153,合作社,有限責任雲林縣榮譽國民之家員工消費合作社,05-5324100*321,雲林縣斗六市榮譽路160號,23.70274154565,120.56029887962,NP100-3,合作場所,,
288949154,合作社,保證責任雲林縣學校員生消費合作社聯合社,,雲林縣斗六鎮太平路31號,23.71013653005,120.54311998603,NP100-3,合作場所,,
288949155,合作社,保證責任雲林縣東勢大蒜生產合作社,,雲林縣東勢鄉復興村復興路23號,23.681913983763,120.27764159169,NP100-3,合作場所,,
288949156,合作社,保證責任雲林縣褒忠養豬生產合作社,05-6626251,雲林縣東勢鄉復興村文化路3號,23.678090620786,120.27547256333,NP100-3,合作場所,,
288949157,合作社,有限責任雲林縣水林鄉尖山國民小學員生消費合作社,,雲林縣水林鄉大山村尖山路192號,23.559779476148,120.22596918877,NP100-3,合作場所,,
288949158,合作社,保證責任雲林縣水林福壽魚生產合作社,05-7857070,雲林縣水林鄉尖山村頂尖山60_3號,23.571366958036,120.22643269324,NP100-3,合作場所,,
288949159,合作社,保證責任雲林縣松竹蔬菜加工生產合作社,,雲林縣縣大埤鄉松竹村松西路19號,23.628624806299,120.43120035981,NP100-3,合作場所,,
288949160,合作社,有限責任國立虎尾農工職業學校員生消費合作社,,雲林縣虎尾鎮博愛路63巷2號,23.714442363731,120.43557444798,NP100-3,合作場所,,
288949161,合作社,有限責任法務部矯正署第二監獄員工消費合作社,05-6339040,雲林縣虎尾鎮建國四村五之十八號,,,,,,
288949162,合作社,保證雲林縣吳厝社區合作農場,,雲林縣西螺鎮吳厝里53之3號,23.744313764207,120.42224319631,NP100-3,合作場所,,
288949163,合作社,有限責任雲林縣國立西螺高級農工職業學校員生消費合作社,05-5864324,雲林縣西螺鎮大園里大同路4號,23.794560146332,120.47099242368,NP100-3,合作場所,,
288949164,合作社,保證責任雲林縣西螺養豬生產合作社,05-5868886,雲林縣西螺鎮平和路170號,23.800206267592,120.4586612499,NP100-3,合作場所,,
288949165,合作社,保證責任雲林縣新豐蔬菜生產合作社,,雲林縣西螺鎮新豐里12鄰264號,23.787503092716,120.44504382191,NP100-3,合作場所,,
288949166,合作社,保證責任雲林縣西螺大蒜生產合作社,,雲林縣西螺鎮鹿場里81之2號,23.750699869315,120.47348418562,NP100-3,合作場所,,
288949167,合作社,有限責任雲林縣口湖鄉金湖國民小學員生消費合作社,,雲林縣金湖國民學校,,,,,,
288949168,合作社,保證責任臺灣區龍鳳青果運銷合作社,0937-761380,雲林縣麥寮鄉橋頭村仁德路189巷13號,23.796260506266,120.27490901304,NP100-3,合作場所,,
288949169,合作社,保證責任雲林縣橋頭合作農場,05-6915098,雲林縣麥寮鄉橋頭村文化路133號,23.793832571106,120.27631840486,NP100-3,合作場所,,
288949170,合作社,有限責任雲林縣古坑鄉古坑國民中學員生消費合作社,,雲琳縣古坑鄉朝陽路2號,,,,,,
288949171,合作社,雲林縣元長養雞生產社,,雲縣元長鄉下寮村東庄25號,,,,,,
288949172,合作社,有限責任台灣省議會秘書處員工消費合作社,,"霧峰鄉本  村中正路734號",,,,,,
288949173,合作社,有限責任宜蘭縣頭城鎮梗枋國民小學員生消費合作社,,頭城鎮梗松里28之1號,,,,,,
288949174,合作社,有限責任交通部澎湖電信局員工社,,馬公市信義路3號,,,,,,
288949175,合作社,屏東縣南郡邵社區合作農場,,高樹鄉長榮村南昌路12號,,,,,,
288949176,合作社,有限責任高雄市台灣高雄少年法院員工消費合作社,3573581,高雄市811楠梓區興楠路180號,22.731169256149,120.33542548167,NP100-3,合作場所,,
288949177,合作社,有限責任test築夢照顧服務勞動合作社,07-3373372-3373,高雄市三民區十全一路100號,22.645178103517,120.31000119209,NP100-3,合作場所,,
288949614,合作社,有限責任台灣土地銀行屏東分行員工消費合作社,,屏東市逢甲路78號,,,,,,
288949179,合作社,有限責任高雄市三民區河濱國民小學員生消費合作社,2211408,高雄市三民區市中一路339號,22.634036319865,120.28779649658,NP100-3,合作場所,,
288949180,合作社,有限責任高雄市三民區三民國民小學員生消費合作社,281-0378,高雄市三民區建國三路216號,22.636660768087,120.29106849864,NP100-3,合作場所,,
288949181,合作社,有限責任國立高雄應用科技大學員生消費合作社,3814526*2691,高雄市三民區建工路415號,22.651577526242,120.32834412094,NP100-3,合作場所,,
288949182,合作社,有限責任高雄市政府民政局殯葬管理所員工消費合作社,07-3817748-111,高雄市三民區本館路600巷20號,22.661101523704,120.33397110365,NP100-3,合作場所,,
288949183,合作社,有限責任高雄市第一照顧服務勞動合作社,,高雄市三民區正忠路152號,22.64320636951,120.33063328906,NP100-3,合作場所,,
288949184,合作社,有限責任高雄市慶安照顧服務勞動合作社,07-3476835,高雄市三民區金山路191號,22.661786144717,120.32276535459,NP100-3,合作場所,,
288949185,合作社,有限責任高雄市三民區東光國民小學員生消費合作社,07-3857160,高雄市三民區黃興路206號,22.649041867078,120.339722293,NP100-3,合作場所,,
288949601,合作社,有限責任苗栗縣大南國民小學員生消費合作社,,大湖大南村63號,,,,,,
288949187,合作社,有限責任高雄市三民區獅湖國民小學員生消費合作社,07-3424782,高雄市三民區鼎金後路495號,22.665961253253,120.32498504964,NP100-3,合作場所,,
288949188,合作社,保證責任高雄市前金區合作社,07-2212931,高雄市前金區大同一路224-1號,22.62855053819,120.29921312969,NP100-3,合作場所,,
288949189,合作社,高雄市立前金幼稚園員工消費合作社,221-1708,高雄市前金區大同二路76號,22.626574164871,120.29334411797,NP100-3,合作場所,,
288949190,合作社,有限責任台灣高雄地方法院員工消費合作社,07-2161418,高雄市前金區河東路188號,22.626196123113,120.28951888134,NP100-3,合作場所,,
288949191,合作社,有限責任高雄市前鎮區獅甲國民中學員生消費合作社,07-3331522*31.3,高雄市前鎮區中山三路43號,22.605091558559,120.30834481009,NP100-3,合作場所,,
288949192,合作社,保證責任高雄市前鎮區合作社,07-3334672,高雄市前鎮區台鋁北巷26之1號,22.610816024807,120.31016739444,NP100-3,合作場所,,
288949193,合作社,有限責任高雄市消費合作社,07-8217677,高雄市前鎮區新衙路17號,22.583367168021,120.32103115138,NP100-3,合作場所,,
288949194,合作社,有限責任高雄市前鎮區鎮昌國民小學員生消費合作社,07-8116575,高雄市前鎮區樹人路261號,22.590547745807,120.31798291123,NP100-3,合作場所,,
288949195,合作社,有限責任高雄市前鎮區復興國小員生消費合作社,,高雄市前鎮區民權二路331號,22.608202967645,120.3114247443,NP100-3,合作場所,,
288949196,合作社,有限責任高雄市前鎮區民權國民小學員生消費合作社,,高雄市前鎮區沱江街200號,22.60848247806,120.31444404901,NP100-3,合作場所,,
288949197,合作社,有限責任高雄市前鎮區瑞豐國民小學員生消費合作社,07-7110846,高雄市前鎮區瑞隆路100號,22.606070360914,120.3370234422,NP100-3,合作場所,,
288949609,合作社,有限責任宜蘭縣家畜生產合作社,03-9323093,宜蘭市三清路41號,,,,,,
288949199,合作社,有限責任高雄市碼頭理貨勞動合作社,,高雄市小港區二苓路124-2號,22.5654868788,120.35082828014,NP100-3,合作場所,,
288949608,合作社,有限責任台中縣立宜欣國民小學員生消費合作社,04-2701567,太平鄉宜欣村新平路85-25號,,,,,,
288949201,合作社,有限責任高雄市小港區小港國民中學員生消費合作社,8414263,高雄市小港區平和南路185號,22.566140600968,120.33834889248,NP100-3,合作場所,,
288949202,合作社,有限責任國立高雄餐旅學院員生消費合作社,8060505*1351,高雄市小港區松和路一號,22.565731515376,120.37150608235,NP100-3,合作場所,,
288949203,合作社,有限責任高雄市小港區桂林國民小學員生消費合作社,07-7910766,高雄市小港區桂陽路390號,22.582908406447,120.35038569249,NP100-3,合作場所,,
288949204,合作社,有限責任高雄市小港區中山國民中學員生消費合作社,8021765*25,高雄市小港區漢民路352號,22.566086747446,120.35579536533,NP100-3,合作場所,,
288949205,合作社,有限責任高雄市小港區鳳林國民小學員生消費合作社,07-8712367,高雄市小港區鳳林路207號,22.526485634638,120.34198976494,NP100-3,合作場所,,
288949206,合作社,有限責任高雄市左營區永清國民小學員生消費合作社,07-5822830,高雄市左營區左營大路2-2號,22.678385189894,120.28738518932,NP100-3,合作場所,,
288949207,合作社,有限責任高雄市左楠原住民清潔勞動合作社,07-5828732,高雄市左營區海功路251號1樓,22.693447895473,120.29333046794,NP100-3,合作場所,,
288949208,合作社,內政部南區兒童之家員工消費合作社,582-4645,高雄市左營區翠華路1401號,22.678326256356,120.29699564104,NP100-3,合作場所,,
288949209,合作社,有限責任高雄市左營區新莊國民小學員生消費合作社,07-3411373,高雄市左營區自由三路1號,22.669267200975,120.30987479536,NP100-3,合作場所,,
288949210,合作社,有限責任高雄市左營區新民國民小學員生消費合作社,07-341-1888,高雄市左營區自由三路478號,22.676691409994,120.31315771395,NP100-3,合作場所,,
288949211,合作社,有限責任高雄市左營區立德國民中學員生消費合作社,07-5817106,高雄市左營區自立新村364號,,,,,,
288949212,合作社,有限責任高雄市左營區福山國民小學員生消費合作社,3487633,高雄市左營區重愛路99號,22.683573226451,120.31721530834,NP100-3,合作場所,,
288949213,合作社,有限責任高雄市新興高級中學員生消費合作社,07-2726104,高雄市新興區五福二路218號,22.624430107539,120.30401093669,NP100-3,合作場所,,
288949605,合作社,有限責任台中縣太平地政事務所員工消費合作社,,大里市東榮路296號五樓,,,,,,
288949215,合作社,保證責任高雄市原住民建設勞動合作社,,高雄市新興區林森一路242號9樓902室,22.634943302713,120.30517879413,NP100-3,合作場所,,
288949216,合作社,保證責任高雄縣大樹大果菜運銷合作社,,高雄市旗山區上洲里?後巷2號,22.852550264112,120.47286754946,NP100-3,合作場所,,
288949217,合作社,有限責任高雄市旗津區大汕國民小學員生消費合作社,07-5712434,高雄市旗津區中洲二路203號,22.587851639771,120.28768254243,NP100-3,合作場所,,
288949218,合作社,有限責任國立高雄海洋科技大學員生消費合作社,07-3617141,高雄市楠梓區海專路142號,22.724714337066,120.31449792862,NP100-3,合作場所,,
288949219,合作社,有限責任高雄市立體育場員工消費合作社,07-7231694-71,高雄市苓雅區中正一路99號,22.626087178586,120.33454245992,NP100-3,合作場所,,
288949220,合作社,有限責任高雄市苓雅區苓雅國民中學員生消費合作社,3349641,高雄市苓雅區四維三路176號,22.618047443709,120.30541045179,NP100-3,合作場所,,
288949607,合作社,嘉義縣太保鄉安東國民小學員生消費社,,太保鄉崙頂村一鄰一號,,,,,,
288947644,合作社,有限責任嘉義縣義竹鄉光榮國民學校員生消費合作社,,光榮國校,,,,,,
288949224,合作社,有限責任高雄市國稅局員工消費合作社,07-7256600,高雄市苓雅廣州一街148號,,,,,,
288949225,合作社,保證責任高雄市興達港漁特產運銷合作社,0930792730,高雄市茄萣區進學路130號,22.903832344141,120.18632091365,NP100-3,合作場所,,
288947651,合作社,台南縣北門鄉公所代表會員工社,,北門鄉北門村108號,,,,,,
288947647,合作社,有限責任嘉義縣立六合國中員生消費合作社,,六腳鄉六腳村3號之1,,,,,,
288949625,合作社,有限責任宜蘭縣冬山鄉大進國民小學員生消費合作社,03-9512268,宜蘭縣冬山鄉大進村(路)24號,24.631220651232,121.71280481112,NP100-3,合作場所,,
288949229,合作社,有限責任高雄市鹽埕國民小學員生消費合作社,07-5210626,高雄市鹽埕區五福四路183號,22.623692241449,120.28291155443,NP100-3,合作場所,,
288949230,合作社,有限責任高雄市前鎮區復興國民小學員生消費合作社,07-5514549,高雄市鹽埕區大智路150號,22.619735184763,120.28459058904,NP100-3,合作場所,,
288949231,合作社,有限責任高雄市鹽埕區鹽埕國民中學員生消費合作社,07-5211283*25,高雄市鹽埕區新樂街46號,22.623615162307,120.28790261901,NP100-3,合作場所,,
288949232,合作社,有限責任高雄市鼓山區內惟國民小學員生消費合作社,551-5405,高雄市鼓山區內惟路73號,22.656528338835,120.27621259956,NP100-3,合作場所,,
288949233,合作社,有限責任高雄市鼓山高級中學員生消費合作社,07-5213258-107,高雄市鼓山區明德路2號,22.651425386721,120.27468984838,NP100-3,合作場所,,
288949234,合作社,有限責任高雄市大港都原住民建築營造勞動合作社,07-5547277,高雄市鼓山區明華路341號2樓,22.663286364324,120.30194976803,NP100-3,合作場所,,
288949235,合作社,有限責任高雄市鼓山區鼓岩國民小學員生消費合作社,5515513,高雄市鼓山區河邊街155號,22.640119804876,120.28299092795,NP100-3,合作場所,,
288949236,合作社,有限責任高雄市鼓山區中山國民小學員生消費合作社,5827585,高雄市鼓山區雄峰路18號,22.669108108957,120.28482690829,NP100-3,合作場所,,
288949237,合作社,有限責任高雄市壽山國民小學員生消費合作社,07-5514393,高雄市鼓山區鼓山二路37巷38弄24號,22.632573984937,120.27984855236,NP100-3,合作場所,,
288949238,合作社,有限責任高雄縣仁武鄉仁武國民小學員生消費合作社,07-3711126,高雄縣仁武鄉仁武村中正路94號,22.701361607199,120.34831831895,NP100-3,合作場所,,
288949239,合作社,有限責任高雄縣大灣國民中學員生消費合作社,07-3711715,高雄縣仁武鄉灣村仁雄路99號,22.676083324486,120.341986389,NP100-3,合作場所,,
288949240,合作社,有限責任高雄縣鳳山市中正國民小學員生消費合作社,07-7012831,高雄縣鳳山市勝利路2號,22.628248767058,120.37408042833,NP100-3,合作場所,,
288949241,合作社,有限責任高雄縣原住民第一清潔勞動合作社,,高雄縣仁武鄉竹後村水管275號,22.706343927533,120.33763553219,NP100-3,合作場所,,
288949242,合作社,有限責任臺北市立大安高級工業職業學校暨附設進修學校員生消費合作社,02-27021481,10664臺北市大安區復興南路2段52號,,,,,,
288949243,合作社,苗栗縣卓蘭鎮大統合作農場,,卓蘭鎮新厝里五鄰41號,,,,,,
288949244,合作社,高雄縣光興社區合作農場,,高雄縣內門鄉光興村榮公坑33號,22.927371789212,120.45615469583,NP100-3,合作場所,,
288949245,合作社,有限責任高雄縣內門鄉西門國民小學員生消費合作社,07-6672077,高雄縣內門鄉內東村柿子園24號,22.920089777546,120.43035215786,NP100-3,合作場所,,
288949246,合作社,有限責任高雄縣內門鄉木柵國民小學員生消費合作社,07-6681183,高雄縣內門鄉木柵村木柵3號,22.975345539645,120.46786072378,NP100-3,合作場所,,
288949247,合作社,保證責任高雄縣水泉社區合作農場,07-6601829,高雄縣內門鄉溝坪村華園39之1號,23.00087975878,120.48626867658,NP100-3,合作場所,,
288949248,合作社,保證責任高雄縣聯發農產品生產合作社,6791008,高雄縣六龜鄉新發村和平路145之1號,23.034550640298,120.66457706075,NP100-3,合作場所,,
288949249,合作社,有限責任高雄市六龜區六龜國民小學員生消費合作社,07-6891053,高雄縣六龜鄉義賢村光復路40號,22.996258217591,120.63421379153,NP100-3,合作場所,,
288949250,合作社,保證責任高雄縣中庄社區合作農場,7011396,高雄縣大寮鄉中庄村打鐵店街89號,22.630568916934,120.40457445673,NP100-3,合作場所,,
288949251,合作社,保證責任高雄縣大發農產品運銷合作社,07-7815981/6432111,高雄縣大寮鄉永芳村內厝路121號,22.607183204887,120.39198878098,NP100-3,合作場所,,
288949252,合作社,有限責任高雄縣大寮鄉潮寮國民小學員生消費合作社,07-7875075,高雄縣大寮鄉潮寮村潮寮路61號,22.565715710827,120.42514433465,NP100-3,合作場所,,
288949253,合作社,保證責任高雄縣大寮鄉農產品生產合作社,0912014399,高雄縣大寮鄉琉球村巷尾路89-47號,22.616331031384,120.41165361453,NP100-3,合作場所,,
288949254,合作社,有限責任高雄縣大寮鄉翁園國民小學員生消費合作社,07-7811685,高雄縣大寮鄉翁園村翁園路79號,22.623245598785,120.4086628675,NP100-3,合作場所,,
288949255,合作社,有限責任高雄縣大樹鄉小坪國民小學員生消費合作社,07-6515232,高雄縣大樹鄉小坪村小坪路73號,22.681714636256,120.41266222618,NP100-3,合作場所,,
288949256,合作社,有限責任高雄縣大樹鄉水寮國民小學員生消費合作社,07-6515536,高雄縣大樹鄉水寮村中華路國小巷1號,22.667994069818,120.40784681907,NP100-3,合作場所,,
288949257,合作社,有限責任高雄縣大樹鄉溪埔國民小學員生消費合作社,07-6561242,高雄縣大樹鄉溪埔村43號,22.723036918686,120.44290862863,NP100-3,合作場所,,
288949258,合作社,有限責任高雄縣大樹鄉龍目國民小學員生消費合作社,07-6514100,高雄縣大樹鄉龍目村56號,22.688507261379,120.40853079525,NP100-3,合作場所,,
288949259,合作社,保證責任屏東縣加禾興農產品運銷合作社,,屏東市民生路194號,,,,,,
288949260,合作社,有限責任高雄縣岡山鎮後紅國民小學員生消費合作社,07-6212815,高雄縣岡山鎮岡燕路二巷88號,22.792903980563,120.30343958598,NP100-3,合作場所,,
288949261,合作社,有限責任臺灣省水利局第六工程處員工消費合作社,,高雄縣岡山鎮柳橋西路15號,22.790274552643,120.2870834917,NP100-3,合作場所,,
288949262,合作社,有限責任高雄縣前峰國民中學員生消費合作社,07-6212804,高雄縣岡山鎮灣裡里育才路3號,22.808004158468,120.2806480551,NP100-3,合作場所,,
288949263,合作社,保證責任高雄縣南寮聯合社區合作農場,07-6175312,高雄縣彌陀鄉南寮村漁港路61號,22.762391907442,120.23905115957,NP100-3,合作場所,,
288949264,合作社,有限責任高雄縣彌陀鄉壽齡國民小學員生消費合作社,07-6196425,高雄縣彌陀鄉文安村學校路1號,,,,,,
288949265,合作社,保證責任高雄縣漢元養雞生產合作社,,高雄縣旗山鎮中洲里中南街65號.,22.844033060209,120.47138283156,NP100-3,合作場所,,
288949266,合作社,有限責任高雄縣旗山鎮大林國民小學員生消費合作社,07-6691774,高雄縣旗山鎮大林里文進巷2號,22.95991877414,120.51075560646,NP100-3,合作場所,,
288949267,合作社,保證責任高雄縣雙溪林業生產合作社,,高雄縣旗山鎮彩光里南彩路23號,,,,,,
288949268,合作社,有限責任高雄縣旗山鎮鼓山國民小學員生消費合作社,07-6661408,高雄縣旗山鎮文中路7號,22.890336800252,120.48082802004,NP100-3,合作場所,,
288949269,合作社,有限責任經濟部員工消費合作社,23212200,10015臺北市中正區福州街15號,,,,,,
288949270,合作社,保證責任高雄縣光洲合作農場,6661343,高雄縣旗山鎮新光里旗南三路35號,22.833499918395,120.46299480236,NP100-3,合作場所,,
288949271,合作社,有限責任高雄縣旗山鎮旗尾國民小學員生消費合作社,07-6612454,高雄縣旗山鎮旗尾里延平二路19號,22.882428490395,120.49194755853,NP100-3,合作場所,,
288949622,合作社,有限責任宜蘭縣風景區管理所員工消費合作社,03-9505544,宜蘭縣五結鄉親河路二段18號,24.67221831894,121.81175640218,NP100-3,合作場所,,
288949619,合作社,有限責任宜蘭縣立五結國民小學員生消費合作社,03-9527272,宜蘭縣五結鄉五結村國民路1號,24.68697227214,121.79796696762,NP100-3,合作場所,,
288949621,合作社,有限責任宜蘭縣利澤國民小學員生消費合作社,03-9506234,宜蘭縣五結鄉成興村利寶路101號,24.665532524441,121.82762912392,NP100-3,合作場所,,
288949620,合作社,有限責任台灣興中紙業股份有限公司員工消費合作社,,宜蘭縣五結鄉台興村台興南路9號,,,,,,
288947650,合作社,雲林縣北港養豬生產社,,北港鎮華勝路345號,,,,,,
288947649,合作社,有限責任嘉義縣北回國小員生社,,北回國小內,,,,,,
288949628,合作社,有限責任宜蘭縣冬山鄉武淵國民小學員生消費合作社,03-9505971,宜蘭縣冬山鄉武淵村富農路二段350號,24.661750654822,121.79797717874,NP100-3,合作場所,,
288949626,合作社,有限責任宜蘭縣冬山鄉冬山國民小學員生消費合作社,03-9593504,宜蘭縣冬山鄉安中路35號,24.631563663278,121.78963179075,NP100-3,合作場所,,
288947648,合作社,高雄縣新發林業生產合作社,,六龜鄉新發村和平巷31號,,,,,,
288949627,合作社,有限責任宜蘭縣冬山鄉東興國民小學員生消費合作社,03-9594047,宜蘭縣冬山鄉東城村東城路316號,24.62910339149,121.80677490942,NP100-3,合作場所,,
288947659,合作社,有限責任南投縣仁愛鄉清境國民小學員生消費合作社,,南投縣仁愛鄉大同村仁和路103號,24.015201403131,121.12283296167,NP100-3,合作場所,,
288947658,合作社,保證責任南投縣力行合作農場,049-2955408,南投縣仁愛鄉力行村新望洋36號,24.14882631646,121.19106862303,NP100-3,合作場所,,
288947654,合作社,有限責任南投縣南投市平和國民小學員生消費合作社,049-2222028,南投市育樂路62號,,,,,,
288949651,合作社,有限責任宜蘭縣蘇澳鎮育英國民小學員生消費合作社,03-9901294,宜蘭縣蘇澳鎮福德路134號,24.640184894009,121.83298685978,NP100-3,合作場所,,
288949642,合作社,有限責任中華民國退伍軍人協會宜蘭縣分會員工社,,宜蘭縣羅東鎮培英路2號,24.677273244939,121.7630811771,NP100-3,合作場所,,
288947653,合作社,有限責任苗栗縣南庄鄉公所員工社,,南庄鄉東村大同路1號,,,,,,
288947657,合作社,有限責任南投縣搬運勞動合作社,2736587,南投縣南投市忠孝路1號4樓之1,23.896459870448,120.69009017961,NP100-3,合作場所,,
288947655,合作社,保證責任南投縣內城合作農場,,南投縣中寮鄉內城村月桃巷81號,23.95440572549,120.78670683657,NP100-3,合作場所,,
288949641,合作社,有限責任宜蘭縣國華國民中學員生社,03-9513062-102,宜蘭縣羅東鎮北成里國華街101號,,,,,,
288949635,合作社,有限責任宜蘭縣政府員工消費合作社,03-9364567,宜蘭縣宜蘭市縣政北路一號,24.730667540494,121.76293366324,NP100-3,合作場所,,
288949640,合作社,有限責任宜蘭縣礁溪鄉消費合作社,03-9873688,宜蘭縣礁溪鄉和平路122號,24.823786826063,121.76584754792,NP100-3,合作場所,,
288949632,合作社,有限責任宜蘭縣大同國民小學員生消費合作社,03-9801172,宜蘭縣大同鄉崙埤村朝陽10之9號,24.678456868154,121.60890100777,NP100-3,合作場所,,
288949639,合作社,有限責任宜蘭縣礁溪鄉四結國民小學員生消費合作社,03-9284751,宜蘭縣礁溪鄉吳沙村育英路46號,24.786177042087,121.75970243814,NP100-3,合作場所,,
288949637,合作社,有限責任宜蘭縣學校員生消費合作社聯合社,,宜蘭縣民權路一段69號,24.752590911969,121.75374805494,NP100-3,合作場所,,
288949636,合作社,有限責任宜蘭縣立宜蘭國民中學員生消費合作社,03-9322519,宜蘭縣樹人路37號,,,,,,
288947656,合作社,有限責任南投縣中寮鄉清水國民小學員生消費合作社,049-2601079,南投縣中寮鄉清水村瀧林巷3號,23.94518083988,120.79132267711,NP100-3,合作場所,,
288949650,合作社,保證責任宜蘭縣蘇澳鎮白米社區合作社,03-9952653,宜蘭縣蘇澳鎮永春路134巷11之1號,24.582632694622,121.84541047135,NP100-3,合作場所,,
288949647,合作社,保證責任宜蘭縣水產運搬勞動合作社,9973580,宜蘭縣蘇澳鎮南安里海邊路52-1號,24.583602221119,121.86752737841,NP100-3,合作場所,,
288949646,合作社,有限責任宜蘭縣蘇澳鎮蘇澳國民小學員生消費合作社,03-9962312,宜蘭縣蘇澳鎮中山路360號,24.595940026595,121.84181945397,NP100-3,合作場所,,
288949649,合作社,有限責任宜蘭縣蘇澳鎮南安國民小學員生消費合作社,03-9962664,宜蘭縣蘇澳鎮學府路122號,24.578911189234,121.86838489659,NP100-3,合作場所,,
288947769,合作社,有限責任臺灣省菸酒公賣局花蓮菸葉廠員工消費合作社,,吉安鄉仁里村中山路一段209號,,,,,,
288947661,合作社,保證責任南投縣仁愛鄉大同園藝生產合作社,049-2801968,南投縣仁愛鄉大同村定遠巷9-1號,24.039681356722,121.1532028275,NP100-3,合作場所,,
288947199,合作社,有限責任臺南市歸南國民小學員生消費合作社,,臺南縣歸仁鄉民權南路171號,22.964457269473,120.28817835204,NP100-3,合作場所,,
288949661,合作社,保證責任屏東縣勝貿蔬果生產合作社,,屏東市信和里金城街156號,,,,,,
288949658,合作社,有限責任台灣省水利局第七工程處員工消費合作社,,屏東市中正路121號,,,,,,
288949655,合作社,有限責任台灣汽車客運股份有限公司員工消費合作社,,宜蘭縣頭城鎮青雲路266號,24.858634189126,121.82615505885,NP100-3,合作場所,,
288949654,合作社,有限責任宜蘭縣頭城鎮竹安國民小學員生消費合作社,03-9771178,宜蘭縣頭城鎮竹安里頭濱路一段601號,24.825163629888,121.82063059626,NP100-3,合作場所,,
288949558,合作社,有限責任基隆市學校員生消費合作社聯合社,,基隆市仁二路139號,25.127959465619,121.74600782213,NP100-3,合作場所,,
288949660,合作社,有限責任屏東縣仁愛國民小學員生消費合作社,7361114,屏東市仁愛路98號,,,,,,
288949656,合作社,高雄市第一住宅公用合作社,07-5212969,專雄市鹽珵區瀨南街204號,,,,,,
288949556,合作社,有限責任基隆市漁船看守勞動合作社,,基隆市中正路626號二樓,25.150853680751,121.76668793055,NP100-3,合作場所,,
288949439,合作社,有限責任國立臺灣大學醫學院附設醫院員工消費合作社,23123456轉61522,台北市中山南路7號B1,25.04077574231,121.51855796639,NP100-3,合作場所,,
288949296,合作社,保證責任高雄縣田寮合作農場,07-6367123,高雄縣田寮鄉鹿埔村鹿埔路18號,22.888751490568,120.42309159436,NP100-3,合作場所,,
288949555,合作社,保証責任基隆市第三住宅公用合作社,,基隆市中正路36號,25.133465616898,121.74509400025,NP100-3,合作場所,,
288949552,合作社,保証責任基隆市漁輪洗船勞動合作社,,基隆市中下路393巷36號2樓,,,,,,
288949554,合作社,有限責任基隆市原住民裝卸搬運勞動合作社,02-24214478,基隆市中山四路189之3號,25.150344396308,121.74337718233,NP100-3,合作場所,,
288949566,合作社,有限責任基隆市消費合作社,,基隆市安樂路2段195號地下樓,25.120563177936,121.72322699483,NP100-3,合作場所,,
288949559,合作社,保証責任基隆市第三車輛搬運勞動合作社,02-24246730,基隆市南榮路319巷16-1號2樓,25.119666697784,121.74457027157,NP100-3,合作場所,,
288949565,合作社,有限責任基隆市立仁愛之家員工消費合作社,02-24241186,基隆市安一路370巷一號,25.134231096397,121.72740988267,NP100-3,合作場所,,
288949564,合作社,有限責任基隆市機關學校員工生消費合作社聯合社,02-24292688,基隆市孝二路三十九號二樓,25.128924577543,121.73942156648,NP100-3,合作場所,,
288949563,合作社,有限責任宜蘭縣稅捐稽徵處員工消費合作社,03-9325101,宜蘭市中山路2段165號,,,,,,
288947669,合作社,有限責任交通部公路局中部汽車技術訓練中心員工消費合作社,2339632,南投縣南投市中興新村光明一路300號,23.936234592326,120.70113077016,NP100-3,合作場所,,
288947668,合作社,有限責任台灣祖靈之邦園藝景觀勞務勞動合作社,0933-629165,南投縣信義鄉東埔村1鄰開高巷8-2號,23.556406569635,120.92512517656,NP100-3,合作場所,,
288947665,合作社,有限責任南投縣仁愛鄉親愛村原住民建築勞動合作社,049-2974778,南投縣仁愛鄉親愛村高平路9號,23.968761556056,121.10746290759,NP100-3,合作場所,,
288947139,合作社,有限責任臺南市立民德國民中學員生消費合作社,06-2205710,臺南市西門路三段223號,23.005363430787,120.20521325111,NP100-3,合作場所,,
288949668,合作社,有限責任屏東縣忠孝國民小學員生消費合作社,7384731,屏東市建豐路204號,,,,,,
288947198,合作社,有限責任花蓮縣卓溪鄉古風國民小學員生消費合作社,03-8846058,花蓮縣卓溪鄉古風村崙天18號,23.220600092124,121.26623323367,NP100-3,合作場所,,
288947664,合作社,有限責任台灣電力公司萬大發電廠員工消費合作社,2974166,南投縣仁愛鄉親愛村大安路1號,23.976546556141,121.1341367692,NP100-3,合作場所,,
288947123,合作社,有限責任臺灣省台南區區農業改良場員工消費合作社,,臺南市東門路480號,22.987699648199,120.2149890004,NP100-3,合作場所,,
288949674,合作社,有限責任屏東縣警察局員工消費合作社,7330733,屏東市蘇州街96號,,,,,,
288947122,合作社,有限責任臺灣健康樂活消費合作社,06-3315225,臺南市東區裕文路99號,22.982866134418,120.23952115907,NP100-3,合作場所,,
288946903,合作社,有限責任臺中縣立豐南國民中學員生消費合作社,04-25280185,臺中縣豐原市豐南街151號,24.239415010793,120.71542573543,NP100-3,合作場所,,
288949675,合作社,有限責任屏東縣原住民山地營造勞動合作社,0952627302,屏東市豐華街134號,,,,,,
288946894,合作社,有限責任臺中縣立潭陽國民小學員生消費合作社,04-25382255,臺中縣潭子鄉潭陽路19號,24.212807978613,120.71177953956,NP100-3,合作場所,,
288947121,合作社,有限責任臺灣省政府勞工處台南區國民就業輔導中心員工社,,臺南市東區衛民街19號,22.992519281277,120.21270792647,NP100-3,合作場所,,
288947120,合作社,有限責任臺南市東南地政事務所員工消費合作社,,臺南市東區林森路一段318號,22.983060467443,120.22032499619,NP100-3,合作場所,,
288947663,合作社,南投縣仁愛鄉合歡合作農場,04-25991023,南投縣仁愛鄉榮興村合歡巷12號,,,,,,
288947137,合作社,有限責任有限責任臺中市理貨勞動合作社,04-22135823,408臺中市南屯區東興路2段186號9樓之1,,,,,,
288947126,合作社,有限責任臺灣省政府農林廳山地農牧局員工社,,臺南市林森路一段316號,22.982921992768,120.21969262136,NP100-3,合作場所,,
288947124,合作社,有限責任交通部公路局嘉義區監理所台南監理站員工消費合作社,062696678,臺南市林森路一段260號,22.98112870628,120.21344806825,NP100-3,合作場所,,
288947125,合作社,有限責任交通處公路局嘉義區監理所台南監理站員工社,,臺南市林森路一段260號,22.98112870628,120.21344806825,NP100-3,合作場所,,
288947130,合作社,有限責任臺南市永康區復華消費合作社,,臺南市永康區復國一路322巷6號,23.010261465657,120.24682475358,NP100-3,合作場所,,
288947129,合作社,有限責任國立臺南護理專科學校員生消費合作社,,臺南市民族路二段78號,22.995406067834,120.20708315228,NP100-3,合作場所,,
288947128,合作社,有限責任國立台南第一高級中學員生消費合作社,06-2755709,臺南市民族路一段1號,22.994172760498,120.21563249941,NP100-3,合作場所,,
288947662,合作社,保證責任南投縣仁愛鄉原住民茶葉生產合作社,04-92802519,南投縣仁愛鄉大同村高峰巷17號,24.016758759077,121.12991396534,NP100-3,合作場所,,
288947132,合作社,台東縣糧食加工生產,,臺東市漢口街123號,,,,,,
288947131,合作社,保證責任臺南市原住民營造勞動合作社,06-2955372,臺南市永華二街40巷17號,22.985451662864,120.18339355745,NP100-3,合作場所,,
288947138,合作社,有限責任中華電信股份有限公司台灣南區電信分公司臺南營運處員工消費合作社,2440207,臺南市西門路一段701號,22.987665017674,120.19717375287,NP100-3,合作場所,,
288947135,合作社,有限責任臺南市廢棄物運銷合作社,,臺南市莊敬路82號9F,22.994512744832,120.23291154321,NP100-3,合作場所,,
288947136,合作社,有限責任臺南市行政院勞工委員會職業訓練局台南區就業服務中心員工消費合作社,06-2371218,臺南市衛民街19號,22.992519281277,120.21270792647,NP100-3,合作場所,,
288947667,合作社,有限責任南投縣信義鄉望美社區合作社,2702320,南投縣信義鄉望美村望和巷31號,23.598862703287,120.88411812077,NP100-3,合作場所,,
288947197,合作社,有限責任臺南縣家政專科學校初級中學,,臺南縣永康鄉鹽竹村2之11號,,,,,,
288947169,合作社,保證責任臺南市養鴨生產合作社,06-7833533,臺南縣學甲鎮新達里10號,23.234885210101,120.18493863077,NP100-3,合作場所,,
288947153,合作社,有限責任臺南市立仁德國民中學員生消費合作社,06-2682724,臺南縣仁德鄉民安路一段363號,22.956030183709,120.24782500821,NP100-3,合作場所,,
288947145,合作社,保證責任臺南縣下營新興果菜運銷合作社,(06)6894850,臺南縣下營鄉新興村中山路1段542號,23.241623927964,120.27557053326,NP100-3,合作場所,,
288949673,合作社,有限責任屏東縣中正國民小學員生消費合作社,7324113,屏東市蘇州街75號,,,,,,
288947141,合作社,保證責任臺南縣七股養魚生產合作社,,臺南縣七股鄉十份村103號,23.090085012877,120.08490705585,NP100-3,合作場所,,
288947144,合作社,保證責任臺南縣生態農業生產合作社,06-6893111,臺南縣下營鄉中正北路318號,23.240506681004,120.26028558911,NP100-3,合作場所,,
288947142,合作社,有限責任臺南縣下營國民小學員生消費合作社,,臺南縣下營鄉中山路2段72號,23.231560549605,120.26051918165,NP100-3,合作場所,,
288947143,合作社,有限責任臺南市立下營國民中學員生消費合作社,06-6891105,臺南縣下營鄉中山路一段412號,23.239045868972,120.27144849114,NP100-3,合作場所,,
288947152,合作社,保證責任臺南市果汁加工生產合作社,06-2018549,臺南縣仁德鄉太子路2-7號,22.991999778434,120.27277702051,NP100-3,合作場所,,
288947148,合作社,有限責任臺南縣左鎮國中員生社,,臺南縣中正村170號,22.994780317541,120.19568069918,NP100-3,合作場所,,
288947146,合作社,保證責任台東縣排灣東青原住民營造勞動合作社,089-349998,臺東市豐榮里32鄰永福路105號,,,,,,
288947147,合作社,台東縣馬偕儲蓄互助社,089-310150轉240,臺東市長沙街303巷1號5樓,,,,,,
288947151,合作社,有限責任臺南縣長興國民小學員生消費合作社,06-2723986,臺南縣仁德鄉土庫路6號,22.990333913128,120.26025150822,NP100-3,合作場所,,
288947149,合作社,中華醫事術專科學校員生消費合作社,,臺南縣仁德鄉中山路373巷31號,22.970805449035,120.25771086259,NP100-3,合作場所,,
288947150,合作社,台南結核病防治院員工消費合作社,,"臺南縣仁德鄉仁德村崁  23號",22.97328648562,120.25148384149,NP100-3,合作場所,,
288947168,合作社,保證責任臺南市農產品加工生產合作社,06-7810495,臺南縣學甲鎮三慶里頂洲72-14號,23.287220462421,120.20486361793,NP100-3,合作場所,,
288947160,合作社,臺南縣南化鄉公所代表會員工消費合作社,,臺南縣南化鄉南化村230號,23.043099597195,120.47794253578,NP100-3,合作場所,,
288947149,合作社,中華醫事術專科學校員生消費合作社,,臺南縣仁德鄉中山路373巷31號,22.970805449035,120.25771086259,NP100-3,合作場所,,
288947150,合作社,台南結核病防治院員工消費合作社,,"臺南縣仁德鄉仁德村崁  23號",22.97328648562,120.25148384149,NP100-3,合作場所,,
288947154,合作社,有限責臺南市信義國民小學員生消費合作社,06-7211918,臺南縣佳里鎮信義一街336號,23.159875141452,120.18208760888,NP100-3,合作場所,,
288947152,合作社,保證責任臺南市果汁加工生產合作社,06-2018549,臺南縣仁德鄉太子路2-7號,22.991999778434,120.27277702051,NP100-3,合作場所,,
288947153,合作社,有限責任臺南市立仁德國民中學員生消費合作社,06-2682724,臺南縣仁德鄉民安路一段363號,22.956030183709,120.24782500821,NP100-3,合作場所,,
288947187,合作社,臺南縣新化鎮公所代表會員工消費合作社,,臺南縣新化鎮中正路500號,22.954868753506,120.25266710219,NP100-3,合作場所,,
288947172,合作社,臺南縣農產品加工生產合作社,06-7810495,臺南縣學甲鎮頂洲里112-1號,,,,,,
288947164,合作社,台灣省菸酒公賣局成功啤酒廠員工社,,"臺南縣善化鎮成功路2 號",22.997791485528,120.21142785094,NP100-3,合作場所,,
288947160,合作社,臺南縣南化鄉公所代表會員工消費合作社,,臺南縣南化鄉南化村230號,23.043099597195,120.47794253578,NP100-3,合作場所,,
288947158,合作社,有限責任臺南縣新市鄉消費合作社,,臺南縣新市鄉仁愛街256號,,,,,,
288947159,合作社,"有限責任臺南縣機關學校員工(生) 消費合作社聯合社",,臺南縣新營巿長榮路2段78號,,,,,,
288947163,合作社,有限責任臺南縣小新國民小學員生消費合作社,5837017,臺南縣善化鎮小新里97-3號,23.122478865807,120.3099723509,NP100-3,合作場所,,
288947161,合作社,有限責任臺南縣善仕鎮消費合作社,06-5838115,臺南縣善仕鎮光文里10鄰民族路66號,23.132526583382,120.30259190889,NP100-3,合作場所,,
288947162,合作社,有限責任臺南縣茄拔國民小學員生消費合作社,06-5837031,臺南縣善化鎮嘉北里280號,23.138611677138,120.32476556434,NP100-3,合作場所,,
